宿名,楽天ID,じゃらんID,YahooID,緯度,経度,住所,電話番号
横浜ベイシェラトンホテル＆タワーズ,1598,,,35.46684003,139.6201536,神奈川県横浜市西区北幸1-3-23,045-411-1111
スカイスパＹＯＫＯＨＡＭＡ,28604,,,35.46455429,139.6246366,神奈川県横浜市西区高島2-19-12 (スカイビル14F）,045-461-1126
京急ＥＸイン横浜駅東口（きた東口）（２０２６年２月２７日リニューアルオープン）,108936,,,35.46777893,139.6246004,神奈川県横浜市神奈川区金港町5-7,045-441-3910
リッチモンドホテル横浜駅前,165714,,,35.4685104,139.6231064,神奈川県横浜市神奈川区鶴屋町2-13-7,045-311-0155
相鉄フレッサイン　横浜駅東口,180143,,,35.4678974,139.6247683,神奈川県横浜市神奈川区金港町5-10,045-285-2031
相鉄ホテルズ　ザ・スプラジール　横浜,189109,,,35.46878632,139.6236798,神奈川県横浜市神奈川区鶴屋町1丁目41番地　THE YOKOHAMA FRONT　4F,045-577-2626
ＪＲ東日本ホテルメッツ横浜,178650,,,35.4687306,139.6245039,神奈川県横浜市神奈川区鶴屋町1丁目66番9,045-317-0011
ホテル横浜キャメロットジャパン,1262,,,35.46799264,139.6188509,神奈川県横浜市西区北幸1-11-3,045-312-2111
カプセルプラス横浜　サウナ＆カプセル,160802,,,35.4663773,139.6177487,神奈川県横浜市西区北幸2-1-5,050-1807-3375
ホテル・ザ・ノット　ヨコハマ,193,,,35.46492351,139.6174372,神奈川県横浜市西区南幸2-16-28,045-311-1311
ＨＯＴＥＬ　ＡＱＵＡ,137446,,,35.46638167,139.6171566,神奈川県横浜市西区北幸2-3-3,045-290-9197
東横ＩＮＮ横浜駅西口,188198,,,35.4627659,139.618204,神奈川県横浜市西区南幸2-2-9,045-290-1045
ＳＵハウス横浜３０５／民泊,184965,,,35.470446,139.6220593,神奈川県横浜市神奈川区台町10-27　コートハイム横浜　305号室　ＳＵ　Ｈｏｕｓｅ　Ｙｏｋｏｈａｍａ　305,090-9396-5866
横浜駅徒歩１０分のアクセス抜群なマンション／民泊,194030,,,35.4704534,139.622063,神奈川県横浜市神奈川区台町10-27　コートハイム横浜212,080-3389-3099
コートハイム横浜／民泊,174539,,,35.4704533,139.6220536,神奈川県横浜市神奈川区台町10-27,070-4348-8322
ホテルプラム（ＨＯＴＥＬ　ＰＬＵＭＭ）横浜,1428,,,35.46649552,139.6160706,神奈川県横浜市西区北幸2-9-1,045-314-3111
フォーポイント　フレックス　ｂｙ　シェラトン　横浜駅西,166999,,,35.4638193,139.6164322,神奈川県横浜市西区南幸2-17-6,045-321-1070
ヒルトン横浜,187474,,,35.46433011,139.6294196,神奈川県横浜市西区みなとみらい6-2-13,045-641-8100
ホテルリブマックス横浜駅西口,172010,,,35.46572838,139.614851,神奈川県横浜市西区北幸2-10-32,045-316-4500
京急ＥＸホテルみなとみらい横浜（横浜シンフォステージ内）,189139,,,35.46108071,139.6270793,神奈川県横浜市西区みなとみらい5-1-2　横浜シンフォステージ ウエストタワー 26階,045-228-7512
横浜東急ＲＥＩホテル,178443,,,35.45983021,139.6259038,神奈川県横浜市西区みなとみらい4-3-6,045-663-0109
横浜駅から徒歩１１分の静かな一戸建て／民泊,168981,,,35.4710396,139.6302165,神奈川県横浜市神奈川区青木町7－15,080-3270-8416
ヒルトン・ガーデン・イン横浜みなとみらい,198625,,,35.4630354,139.6325679,神奈川県横浜市西区みなとみらい6-3-4,045-415-0500
ウェスティンホテル横浜,183942,,,35.4576157,139.6270392,神奈川県横浜市西区みなとみらい4-2-8,045-577-0818
ザ・カハラ・ホテル＆リゾート　横浜,187395,,,35.462537,139.6334339,神奈川県横浜市西区みなとみらい1-1-3,045-522-0008
三井ガーデンホテル横浜みなとみらいプレミア,184792,,,35.4570712,139.6289589,神奈川県横浜市西区みなとみらい3-3-3,045-227-1311
Ｒ－ｈｏｕｓｅ　２ｎｄ／民泊,186431,,,35.4710931,139.6349978,神奈川県横浜市神奈川区神奈川1-8-5　Ｒ-ｈｏｕｓｅ　2ｎｄ,070-4474-0102
トラストメゾン桜木町２０１号／民泊,170112,,,35.4528509,139.6224876,神奈川県横浜市西区伊勢町2-87　Ｔｒｕｓｔ　Ｍａｉｓｏｎ　Ｓａｋｕｒａｇｉｃｈｏ,080-4086-2001
飛鳥ＩＩ,136103,,,35.45461948,139.6315281,神奈川県横浜市西区みなとみらい2-2-1　横浜ランドマークタワー（郵船クルーズ本社）,045-640-5301
横浜ベイホテル東急,2003,,,35.45701099,139.6355388,神奈川県横浜市西区みなとみらい2-3-7,045-682-2222
ヨコハマ　グランド　インターコンチネンタル　ホテル　ｂｙ　ＩＨＧ,5731,,,35.45788315,139.6370886,神奈川県横浜市西区みなとみらい1-1-1,045-223-2300
ニューオータニイン横浜プレミアム,104678,,,35.45250302,139.6303894,神奈川県横浜市中区桜木町1-1-7,045-210-0707
絹の湯　ホテルテラス横浜桜木町（ＢＢＨホテルグループ）,106151,,,35.45110305,139.6283191,神奈川県横浜市中区花咲町3-95,050-1807-3370
横浜みなとみらい　万葉倶楽部,50200,,,35.45596395,139.638233,神奈川県横浜市中区新港2-7-1,0570-07-4126
フレックステイイン桜木町,31476,,,35.44968384,139.6283814,神奈川県横浜市中区花咲町2-72-16,045-262-5388
キーサイド桜木町４０１／民泊,190749,,,35.4497061,139.6287771,神奈川県横浜市中区花咲町2-71　キーサイド桜木町401,050-1721-4419
キーサイド桜木町２０１／民泊,190751,,,35.4497061,139.6287771,神奈川県横浜市中区花咲町2-71　キーサイド桜木町201,050-1721-4419
キーサイド桜木町３０１／民泊,194438,,,35.44970546,139.6287969,神奈川県横浜市中区花咲町2-71　キーサイド桜木町,050-1721-4419
横浜桜木町ワシントンホテル,5242,,,35.45078383,139.6326143,神奈川県横浜市中区桜木町1-101-1,045-683-3111
ゲストハウスＦＵＴＡＲＥＮＯ－横浜野毛みなとみらいの宿－,162892,,,35.4485572,139.6271622,神奈川県横浜市中区野毛町4-173-5,045-308-8577
ＪＲ東日本ホテルメッツ　プレミア　横浜桜木町,179286,,,35.44981833,139.6316485,神奈川県横浜市中区桜木町1-1-93,045-228-0011
横浜マンダリンホテル,239,,,35.44795344,139.6269315,神奈川県横浜市中区野毛4-170 ,045-243-3131
リゾートカプセル桜木町（ＢＢＨホテルグループ）,53080,,,35.44897843,139.6309617,神奈川県横浜市中区花咲町1-22-2ブリーズベイホテルB１F,045-253-5553
ブリーズベイホテル・リゾート＆スパ（ＢＢＨホテルグループ）,392,,,35.44897843,139.6309895,神奈川県横浜市中区花咲町1-22-2,045-253-5555
ホテルリソル横浜桜木町,167875,,,35.44963248,139.6342433,神奈川県横浜市中区太田町6丁目78,045-662-9269
インターコンチネンタル横浜Ｐｉｅｒ　８　ｂｙ　ＩＨＧ,177505,,,35.45617684,139.6422596,神奈川県横浜市中区新港2-14-1,045-307-1111
ナビオス横浜,14800,,,35.4526338,139.6392636,神奈川県横浜市中区新港2-1-1,045-633-6000
アパホテル＆リゾート〈横浜ベイタワー〉,171996,,,35.45171232,139.6384146,神奈川県横浜市中区海岸通5-25-3,0570-055-111
東横ＩＮＮ横浜桜木町,108344,,,35.44958404,139.6354391,神奈川県横浜市中区本町6-55,045-671-1045
横浜桜木町タウンホテル,161057,,,35.4478073,139.6316314,神奈川県横浜市中区花咲町1-5-1,045-309-7130
ＮＵＤＡ　ｂｙ　Ｈ－ＳＥＶＥＮ【大人専用１８禁・ハピホテ提携】,163337,,,35.4470657,139.6293094,神奈川県横浜市中区宮川町2-23-2,045-241-1413
（全室禁煙）レンブラントスタイル横浜桜木町,193485,,,35.4485113,139.6336132,神奈川県横浜市中区住吉町6丁目78番地1,045-680-0238
Ｆａｉｒｙ　Ｗｉｎｋ【大人専用１８禁・ハピホテ提携】,163239,,,35.4471268,139.629776,神奈川県横浜市中区野毛町1-58,045-243-2182
マルタニホテル,16513,,,35.44883133,139.6346364,神奈川県横浜市中区相生町6-99,045-681-2748
相鉄フレッサイン　横浜桜木町,141111,,,35.44957588,139.6362821,神奈川県横浜市中区本町5-49,045-640-0203
ファーイーストビレッジホテル横浜,182565,,,35.4479051,139.6328924,神奈川県横浜市中区尾上町6-90-1,045-232-4476
カプセルＩＮＮ都,111221,,,35.44693699,139.6306979,神奈川県横浜市中区野毛町1-22,045-241-0133
横浜平和プラザホテル,11195,,,35.44869248,139.6357835,神奈川県横浜市中区太田町5-65,045-212-2333
ホテルルートイン横浜馬車道,68268,,,35.44874528,139.6369112,神奈川県横浜市中区弁天通4-53-1,050-1726-2472
ＨＯＴＥＬ　ＳＴＡＹ　ＹＯＫＯＨＡＭＡ,167863,,,35.4457131,139.6295177,神奈川県横浜市中区福富町西通46-2,045-261-2632
リッチモンドホテル横浜馬車道,17680,,,35.44733429,139.6354864,神奈川県横浜市中区住吉町5-59,045-228-6655
プロスタイル旅館　横浜馬車道,167945,,,35.44682249,139.6349621,神奈川県横浜市中区常盤町5-64,045-662-2222
ホテルマイステイズ横浜関内,153564,,,35.4466713,139.6346785,神奈川県横浜市中区尾上町5-67-1,045-227-6701
ホテル　セントラル横浜,180245,,,35.4444576,139.6303797,神奈川県横浜市中区福富町仲通41,050-1721-4419
コンフォートホテル横浜関内,38530,,,35.44676495,139.6368724,神奈川県横浜市中区住吉町3-33,045-650-4711
アパホテル〈横浜関内〉,32077,,,35.44661774,139.6367613,神奈川県横浜市中区住吉町3-37-2,0570-045-650
横浜タウンホテル,67251,,,35.44439007,139.6315202,神奈川県横浜市中区福富町東通38-7,045-260-6822
ホテル　パセラの森　横浜関内,149320,,,35.44408433,139.6307409,神奈川県横浜市中区福富町東通40-4,0120-194-458
カプセルホテルパレス,145407,,,35.44387291,139.6310949,神奈川県横浜市中区福富町東通6-5,045-252-1126
ホテル　ゴマックス【大人専用１８禁・ハピホテ提携】,163287,,,35.4428635,139.6278652,神奈川県横浜市中区末吉町1-7,045-251-8680
ホテルグランドサン横浜,5198,,,35.44306239,139.6295871,神奈川県横浜市中区長者町8-122,045-241-7551
グランカスタマ伊勢佐木町店,153313,,,35.4430384,139.6299734,神奈川県横浜市中区長者町7-115,045-315-7272
ホテルアルファーワン横浜関内,129909,,,35.44374019,139.6330562,神奈川県横浜市中区羽衣町2-8-5,045-231-8686
ダイワロイネットホテル横浜関内,80472,,,35.44336246,139.6332645,神奈川県横浜市中区羽衣町2-7-4,045-252-1475
東横ＩＮＮ横浜関内,108359,,,35.44640397,139.6402416,神奈川県横浜市中区太田町1-5-1,045-662-1045
ホテルバリバリ伊勢佐木,184859,,,35.4418875,139.6289715,神奈川県横浜市中区伊勢佐木町4-109,045-334-8056
ホテルリブマックス横浜関内駅前,162847,,,35.4431245,139.634487,神奈川県横浜市中区蓬莱町2-3-5,045-252-3450
ホテルリブマックスＢＵＤＧＥＴ横浜関内,135465,,,35.44117091,139.6286817,神奈川県横浜市中区伊勢佐木町4-117,045-250-1510
ＴＯＫＹＯ　３６５　ＨＯＴＥＬ　横浜店,178949,,,35.4415491,139.6310134,神奈川県横浜市中区長者町5-73-4,045-252-2777
チサンホテル横浜伊勢佐木町,184051,,,35.4416023,139.6328382,神奈川県横浜市中区長者町5-53,045-262-2811
シタディーンハーバーフロント横浜,187080,,,35.4465883,139.6434956,神奈川県横浜市中区日本大通5-2,045-680-3322
Ｓｅｒｖｉｃｅ　Ａｐａｒｔｍｅｎｔ　１７０ｍ２　Ｃｅｎｔｅｒ　Ｙｏｋｏｈａｍａ／民泊,168948,,,35.4400957,139.6266051,神奈川県横浜市中区伊勢佐木町5－129　フルヤビル3Ｆ　Ｓｅｒｖｉｃｅ　Ａｐｔ　170ｍ2　Ｃｅｎｔｅｒ　Ｙｏｋｏｈａｍａ,080-5674-4489
横浜ウィークリー伊勢佐木町店,31898,,,35.44003904,139.6269363,神奈川県横浜市中区伊勢佐木町5-130,045-231-0021
横浜ウィークリー伊勢佐木町３,172427,,,35.43964344,139.6247489,神奈川県横浜市中区末吉町3-50-2,045-231-0021
Ｔａｂｉｓｔ　ＭＡＹＵＤＡＭＡ　ＣＡＢＩＮ,188098,,,35.4421566,139.6364219,神奈川県横浜市中区不老町1-4-6,045-263-9351
レンブラントスタイル横浜関内,861,,,35.4422238,139.6371892,神奈川県横浜市中区不老町1-2,045-681-4800
ホテルマイステイズ横浜,50196,,,35.43892657,139.6228767,神奈川県横浜市中区末吉町4-81,045-252-1311
横浜サービスアパートメント伊勢佐木町新館,137019,,,35.43902636,139.6253492,神奈川県横浜市中区伊勢佐木町6-143-12,045-231-0021
ホテル　インザムーン横浜【大人専用１８禁・ハピホテ提携】,163368,,,35.4815949,139.595529,神奈川県横浜市神奈川区羽沢町59-1,045-383-1511
ホテルコメント横浜関内,188179,,,35.4412413,139.6360836,神奈川県横浜市中区不老町2-7-2,045-222-0027
スーパーホテル横浜・関内,68609,,,35.4442626,139.6425109,神奈川県横浜市中区山下町195-1,045-650-9000
ホテルＪＡＬシティ関内　横浜,53714,,,35.44526786,139.6443822,神奈川県横浜市中区山下町72,045-661-2580
ハイアットリージェンシー横浜,178689,,,35.4458167,139.6452454,神奈川県横浜市中区山下町280-2,045-222-0100
ダイワロイネットホテル横浜公園,80777,,,35.44346545,139.6418582,神奈川県横浜市中区山下町204-1,045-664-3745
ホテル　アイマーレ　横浜伊勢佐木町,158605,,,35.43899739,139.6297056,神奈川県横浜市南区永楽町2-21-1,045-334-7373
東横ＩＮＮ横浜スタジアム前１,109218,,,35.44318492,139.6416722,神奈川県横浜市中区山下町205-1,045-277-1045
東横ＩＮＮ横浜スタジアム前２,108629,,,35.44301828,139.6417999,神奈川県横浜市中区山下町205-3,045-664-1045
Ｒｅｔｒｏｓｐｅｃｔ　Ｓｔａｙ　Ｙｏｋｏｈａｍａ,197789,,,35.4441993,139.6444611,神奈川県横浜市中区山下町156-2,050-8880-4077
Ｒｅｔｒｏｓｐｅｃｔ　Ｓｔａｙ　Ｋａｎｎａｉ　＾,199817,,,35.4403172,139.6380965,神奈川県横浜市中区扇町3-8-1 ベイサイド関内ビル３階,050-8880-4077
ＲＯＯＭ　ＩＮＮ　Ｓｈａｎｇｈａｉ,182700,,,35.44264743,139.6435241,神奈川県横浜市中区山下町214,045-664-2747
ＨＡＲＥ－ＴＡＢＩ　Ｔｒａｖｅｌｅｒ’ｓ　Ｉｎｎ　ＹＯＫＯＨＡＭＡ,188295,,,35.4423729,139.6438402,神奈川県横浜市中区山下町216　堀井ビル2F,045-306-7102
ホテルリブマックス横浜スタジアム前,182371,,,35.4421183,139.6436922,神奈川県横浜市中区山下町219-3,045-662-6390
ローズホテル横浜,18148,,,35.44405718,139.64683,神奈川県横浜市中区山下町77,045-681-3311
横浜ＮＯＩＥ,180093,,,35.4421654,139.6440889,神奈川県横浜市中区山下町220　緑苑ビル4F　(エレベータなし）,050-3615-7129
ｇｌｏｂａｌ　ｃａｂｉｎ横浜中華街（ドーミーインチェーン）,167844,,,35.4421291,139.6453213,神奈川県横浜市中区山下町166,045-226-5489
Ｒａｙ　Ｈｏｕｓｅ,164464,,,35.44253186,139.6461102,神奈川県横浜市中区山下町137,090-9812-7320
ホテルニューグランド,2013,,,35.44494328,139.6497353,神奈川県横浜市中区山下町10番地,045-681-1841
ＣＨＩＬＬＵＬＵ　ＣＯＦＦＥＥ　ＡＮＤ　ＨＯＳＴＥＬ,160975,,,35.44284123,139.6470833,神奈川県横浜市中区山下町188-12 2階,080-1174-1421
ホテルリブマックス横浜元町駅前,161013,,,35.44288422,139.6475953,神奈川県横浜市中区山下町187,045-662-1960
ＴＲＡＮ．ＳＣＥＮＤＥＲ　ＨＯＴＥＬ　Ｙｏｋｏｈａｍａ（２０２５年１１月１４日ＯＰＥＮ）,197381,,,35.4429567,139.6479264,神奈川県横浜市中区山下町81-3,045-415-0311
ザ・ゲートホテル横浜　ｂｙ　ＨＵＬＩＣ,192809,,,35.444525,139.6501368,神奈川県横浜市中区山下町11-3,045-264-6040
エスカル横浜,18980,,,35.44297682,139.649316,神奈川県横浜市中区山下町84,045-681-2141
ＳＨＩＫＡ　ＨＯＭＥ,197341,,,35.44188044,139.648175,神奈川県横浜市中区山下町106-15　シャルム横浜山下町,045-263-6183
東横ＩＮＮ横浜新子安駅前,107795,,,35.48614431,139.6534833,神奈川県横浜市神奈川区子安通2-240-32,045-451-2045
ＹｏｋｏｈａｍａＳｔａｙＰｒｅｍｉｅｒ,192710,,,35.4410171,139.6492843,神奈川県横浜市中区元町2-82　3階,045-212-9309
ｂｎｂ＋　横浜元町店,183595,,,35.4409177,139.6498423,神奈川県横浜市中区元町1-27-2いちご横濱元町ビル3階,050-5527-9348
ホテル　フィール,149397,,,35.44132338,139.6521103,神奈川県横浜市中区山手町184,045-622-7707
シンプルホテル共栄,179215,,,35.4388276,139.6385316,神奈川県横浜市中区寿町3-12-8,045-263-9190
ＨＯＴＥＬ　ＦＵＴＡＢＡ　＾,170575,,,35.4388176,139.6386673,神奈川県横浜市中区寿町3-12-9　ＨＯＴＥＬ　Ｆｕｔａｂａ,080-8042-6516
ひまわり館　＾,186228,,,35.4384842,139.6385858,神奈川県横浜市中区寿町3-12-14　ひまわり館,045-651-6092
Ａ　ＹＯＫＯＨＡＭＡ,164963,,,35.4386945,139.6398257,神奈川県横浜市中区松影町3-10-1,0120-045-155
Ｈｏｓｔｅｌ　Ｚｅｎ,70982,,,35.43849094,139.6393253,神奈川県横浜市中区松影町3-10-5第三ホテル浜松荘５階,045-342-9553
東横ＩＮＮＪｒ．横浜伊勢佐木長者町,183252,,,35.4372345,139.6300154,神奈川県横浜市南区真金町1-10-5,045-243-1802
Ｇｕｅｓｔ　Ｈｏｕｓｅ　Ｌａ　Ｃａｖａ　ゲストハウス　ラ・カーヴァ,168506,,,35.43799166,139.6386333,神奈川県横浜市中区松影町4-14-17,045-263-8788
４階広々コンドミ二アム。羽田空港より３０分。最寄り駅３分／民泊,174353,,,35.4382689,139.6232046,神奈川県横浜市中区伊勢佐木町7-153-2 ISEZAKI 7 401,090-3334-7459
２階広々コンドミ二アム。羽田空港より３０分。最寄り駅３分／民泊,174247,,,35.4382612,139.6232045,神奈川県横浜市中区伊勢佐木町7-153-2 ISEZAKI 7 201,090-3334-7459
３階広々コンドミ二アム。羽田空港より３０分。最寄り駅３分／民泊,174251,,,35.4382612,139.6232045,神奈川県横浜市中区伊勢佐木町7-153-2,090-3334-7459
ヨコハマホステルヴィレッジ　林会館,49253,,,35.4380472,139.6393086,神奈川県横浜市中区松影町3-11-2　三和ビル1F,045-663-3696
ホテル　ミライ,172107,,,35.43738896,139.6376866,神奈川県横浜市中区長者町1-1-14,045-662-8284
Ｙｏｋｏｈａｍａ　Ｇｕｅｓｔｈｏｕｓｅ　ＨＡＣＯ．ＴＡＴＡＭＩ．,168572,,,35.4379002,139.6425617,神奈川県横浜市中区石川町2-64（レセプション）,080-8147-9611
横浜ウィークリー大通り公園,191610,,,35.4364941,139.6235931,神奈川県横浜市南区高根町4-23-8　グランリーヴェル横濱大通公園,045-231-0021
ＧＲＡＮＤ　ＣＡＶＥ　ＭＯＴＯＭＡＣＨＩ,184716,,,35.4387239,139.6448622,神奈川県横浜市中区石川町1-14,011-374-4638
横濱本館・石川町　＾,175890,,,35.4381119,139.6439722,神奈川県横浜市中区石川町2-75－1　宿家横濱本館1Ｆ,070-2810-0900
Ｒｅｌａｘｉｎｇ　石川町　サウナ付き一棟貸しの宿／民泊,194711,,,35.4360917,139.6395205,神奈川県横浜市中区山手町205-24　Ｒｅｌａｘｉｎｇ　石川町,050-3748-0708
ＧＲＡＮＤ　ＣＡＶＥ　ＹＯＫＯＨＡＭＡ,178467,,,35.43656709,139.6417812,神奈川県横浜市中区石川町3-108-1,011-374-4638
横浜ザ・アパートメント,180094,,,35.43410976,139.6336007,神奈川県横浜市南区中村町1-55-7　ヒルサイドプレイス103,050-3615-7129
アネックス末広,135947,,,35.43434655,139.6238046,神奈川県横浜市南区浦舟町5-69-1,045-243-1215
ＳＡＭＵＲＡＩ　ＨＯＵＳＥ　ＹＯＫＯＨＡＭＡ／民泊,185645,,,35.4347084,139.646345,神奈川県横浜市中区麦田町1-17-6　101　ＳＡＭＵＲＡＩ　ＨＯＵＳＥ　ＹＯＫＯＨＡＭＡ,050-3561-2754
横浜ウィークリー吉野町店,28567,,,35.43185157,139.6174099,神奈川県横浜市南区睦町1-17-6,045-231-0021
旅館　松島,11378,,,35.4280275,139.6119197,神奈川県横浜市南区蒔田町863,045-731-2720
ホテルアソシア新横浜,69355,,,35.50751594,139.6170939,神奈川県横浜市港北区新横浜2-100-45,045-475-0011
新横浜グレイスホテル,13847,,,35.50890471,139.6186243,神奈川県横浜市港北区新横浜3-6-15,045-474-9520
新横浜フジビューホテル　スパ＆レジデンス,1429,,,35.50733812,139.6146469,神奈川県横浜市港北区新横浜2-3-1,045-473-0021
新横浜国際ホテル,921,,,35.50981845,139.6166466,神奈川県横浜市港北区新横浜3-18-1,045-473-1311
高濃度炭酸泉　ハナミズキの湯　スーパーホテル新横浜,56136,,,35.50826301,139.6144413,神奈川県横浜市港北区新横浜2-6-20,045-473-9000
東横ＩＮＮ新横浜駅前新館,69374,,,35.50684371,139.6141386,神奈川県横浜市港北区新横浜2-2-14,045-470-1045
新横浜プリンスホテル,19191,,,35.50973519,139.6192492,神奈川県横浜市港北区新横浜3-4,045-471-1111
東横ＩＮＮ新横浜駅前本館,69373,,,35.50719923,139.6139553,神奈川県横浜市港北区新横浜2-2-12,045-474-1045
ベストウェスタンホテルフィーノ新横浜,178162,,,35.50727385,139.6137808,神奈川県横浜市港北区新横浜2丁目2番11号,045-474-0171
ラグナスイート新横浜,80695,,,35.50840187,139.6139358,神奈川県横浜市港北区新横浜2-6-6,045-470-6677
新横浜ＳＫホテル,151063,,,35.5071392,139.6135962,神奈川県横浜市港北区新横浜２－２－９,045-476-0088
コートホテル新横浜,1747,,,35.50871016,139.613833,神奈川県横浜市港北区新横浜2-13-1,045-471-0505
ワシントンＲ＆Ｂホテル新横浜駅前,18170,,,35.51018226,139.6154939,神奈川県横浜市港北区新横浜2-15-20,045-478-1717
ダイワロイネットホテル新横浜,70195,,,35.51080726,139.6177993,神奈川県横浜市港北区新横浜3-17-1,045-473-4155
ホテルリブマックス新横浜,180432,,,35.51013167,139.614345,神奈川県横浜市港北区新横浜2-14-19,045-471-4100
ホテルＲＵＡＮ【大人専用１８禁・ハピホテ提携】,163210,,,35.5058004,139.611302,神奈川県横浜市港北区新横浜1-20-7,045-470-0234
Ｈｏｔｅｌ　ＺＡＬＡ,187259,,,35.5056556,139.6096314,神奈川県横浜市港北区新横浜1-27-9,045-474-5433
ＨＯＴＥＬ　Ｆａｉｒｙ横浜【大人専用１８禁・ハピホテ提携】,163238,,,35.505606,139.6091579,神奈川県横浜市港北区新横浜1-28-6,045-477-2245
ホテル　プラタナス新横浜,188224,,,35.5175994,139.6136742,神奈川県横浜市港北区北新横浜1-4-2,045-717-7717
Ｊ’ｓ　Ｈｏｕｓｅ／民泊,190425,,,35.49646847,139.6222613,神奈川県横浜市港北区篠原西町35-1-11　Ｊ’ｓ　Ｈｏｕｓｅ,03-6231-0330
ＴＲＡＶＥＬＥＲＺ　ＹＯＫＯＨＡＭＡ,191629,,,35.5100662,139.63187,神奈川県横浜市港北区菊名4-2-2-2Ｆ,03-6822-6655
ホテル縁道,179577,,,35.5312544,139.7032838,神奈川県川崎市川崎区宮本町2-25,044-589-5858
相鉄フレッサイン　川崎駅東口,51214,,,35.5302351,139.7019136,神奈川県川崎市川崎区砂子2-11-17,044-382-2031
東横ＩＮＮ川崎駅前砂子,108310,,,35.53170717,139.7022802,神奈川県川崎市川崎区砂子１－５－２３,044-222-1045
東横ＩＮＮ川崎駅前市役所通,108398,,,35.53020454,139.7015303,神奈川県川崎市川崎区砂子2-11-15,044-230-1045
天然温泉　扇浜の湯　ドーミーイン川崎（ドーミーイン・御宿野乃　ホテルズグループ）,176996,,,35.5290976,139.7031292,神奈川県川崎市川崎区東田町9-3,044-230-5489
川崎ホテルパーク,2912,,,35.5316739,139.7047355,神奈川県川崎市川崎区宮本町8-21,044-211-5885
川崎セントラルホテル,2913,,,35.52879363,139.7030913,神奈川県川崎市川崎区東田町9-1,044-246-7111
アパホテル〈ＴＫＰ京急川崎駅前〉,167226,,,35.53293757,139.7019798,神奈川県川崎市川崎区本町1-1-11,044-245-4791
スラッシュ川崎（ｓｌａｓｈ　川崎）,177428,,,35.5289521,139.7012863,神奈川県川崎市川崎区砂子2-9-7,050-3187-8557
京急ＥＸイン　京急川崎駅前,151404,,,35.53211238,139.7004527,神奈川県川崎市川崎区砂子1-3-1 京急川崎駅ビル「Wing kitchen」3F,044-246-3910
ホテル　サンロイヤル川崎,1284,,,35.53330146,139.7035494,神奈川県川崎市川崎区本町1-5-11,044-244-3711
ネストホテルオルト川崎駅前,160737,,,35.5285144,139.7006375,神奈川県川崎市川崎区砂子2-7-7,044-245-8886
ダイワロイネットホテル川崎,72861,,,35.52856857,139.699986,神奈川県川崎市川崎区砂子2-6-15,044-210-2055
ＨＯＴＥＬ　Ｇｌａｎ　Ｂａｌｉ　ＲＥＳＯＲＴ,187142,,,35.5339618,139.7040582,神奈川県川崎市川崎区本町1-4-4,044-589-7888
ＨＯＴＥＬ　Ｓａｌｏｎｅ【大人専用１８禁・ハピホテ提携】,163251,,,35.5332527,139.6999957,神奈川県川崎市川崎区駅前本町19-1,044-211-9700
東横ＩＮＮＪｒ．川崎駅前,182558,,,35.5340762,139.7013462,神奈川県川崎市川崎区駅前本町24-3,044-246-1045
ＨＯＴＥＬ　Ｃｉｔｙ【大人専用１８禁・ハピホテ提携】,163250,,,35.5335202,139.7000521,神奈川県川崎市川崎区駅前本町19-3,044-233-3299
ＳＡＫＥ　Ｋｕｒａ　Ｈｏｔｅｌ　川崎宿,198373,,,35.5342949,139.7047593,神奈川県川崎市川崎区本町2-8-2,044-210-0184
フレックステイイン川崎小川町,28896,,,35.52763812,139.7000916,神奈川県川崎市川崎区小川町15-9,044-245-9660
カプセル＆サウナ川崎ビッグ,68221,,,35.52770754,139.6996333,神奈川県川崎市川崎区小川町15-11,044-246-0008
川崎リバーホテル,1352,,,35.52738536,139.6997333,神奈川県川崎市川崎区小川町16-3,044-244-4611
パールホテル川崎,1038,,,35.52737145,139.6990195,神奈川県川崎市川崎区小川町16-9,044-221-8080
フレックステイイン川崎貝塚,28895,,,35.52600506,139.703497,神奈川県川崎市川崎区貝塚1-13-2,044-244-9499
川崎日航ホテル,2056,,,35.53009609,139.696764,神奈川県川崎市川崎区日進町１,044-244-5941
ホテルプラスホステル東京川崎,189157,,,35.526954,139.6985898,神奈川県川崎市川崎区小川町17-1,050-1720-0444
ＪＲ東日本ホテルメッツ川崎,1708,,,35.53115706,139.696214,神奈川県川崎市幸区堀川町72-2,044-540-1100
川崎ステーションイン,168444,,,35.52673226,139.6980208,神奈川県川崎市川崎区小川町17-11,044-222-1888
アールズフォレストイン,141291,,,35.52695606,139.6973534,神奈川県川崎市川崎区小川町11-2,044-211-6143
ホテルメトロポリタン川崎,177946,,,35.53058117,139.6954775,神奈川県川崎市幸区大宮町1-5,044-533-2121
レックスイン川崎,67196,,,35.52770746,139.6964697,神奈川県川崎市川崎区小川町6-8,0120-090-375
スカイハートホテル川崎,15429,,,35.52564941,139.6986002,神奈川県川崎市川崎区南町12-9,044-233-4400
グランデュールホテル,5073,,,35.52596318,139.6951727,神奈川県川崎市川崎区日進町16-1,044-244-5228
ホテルリブマックスＢＵＤＧＥＴ川崎駅前,130623,,,35.53173466,139.6916949,神奈川県川崎市幸区南幸町2-20-8,044-542-8686
ビジネスホテルニュー大和,180249,,,35.52521207,139.6929106,神奈川県川崎市川崎区日進町9-11,044-211-5753
ビジネスホテル　サンフラワー　川崎日進町,172987,,,35.5252219,139.6927926,神奈川県川崎市川崎区日進町9-58,044-211-4324
Ｊａｐａｎｅｓｅ－ｓｔｙｌｅ　ｉｎｎ　スワロー東京川崎,178890,,,35.525554,139.692418,神奈川県川崎市川崎区日進町9-38,044-222-6308
門宿,172448,,,35.52478984,139.6928939,神奈川県川崎市川崎区日進町9-11,044-233-6474
日進月歩,197204,,,35.5251359,139.6923752,神奈川県川崎市川崎区日進町9-12,011-374-4638
ルマイン六郷土手,180745,,,35.54170518,139.7074801,東京都大田区仲六郷4-20-6,03-6705-5554
Ｌｅ　Ｃｏｃｏｎ　仲六郷,197534,,,35.5420948,139.7076217,東京都大田区仲六郷4-20-4,080-8500-9217
悠々自在舎／民泊,173645,,,35.5222897,139.6912571,神奈川県川崎市川崎区池田1-7-5 mh,080-3550-4170
ビジネス旅館　志津川,52862,,,35.5257999,139.7175347,神奈川県川崎市川崎区大島5-12-6,044-233-1828
ＬＩＦＥ　ＴＯＷＮ　ＮＩＳＨＩＲＯＫＵＧＯ／民泊,195391,,,35.5465822,139.7039274,東京都大田区西六郷3-10-18　LIFE TOWN NISHIROKUGO,050-1741-0183
縄文天然温泉　志楽の湯（川崎生涯研修センター）,135586,,,35.54094451,139.6832981,神奈川県川崎市幸区塚越4-314-1,044-541-2451
ホテルステイ川崎,187957,,,35.5102549,139.7117609,神奈川県川崎市川崎区鋼管通4-16-7,044-366-8868
ビジネスインこだま,136887,,,35.52908602,139.7316861,神奈川県川崎市川崎区台町4-20,044-287-2212
東六郷ＷＨＩＴＥ／民泊,195465,,,35.5507471,139.7204692,東京都大田区東六郷1-22-5　東六郷WHITE,080-8500-9217
東六郷ＢＬＡＣＫ／民泊,195466,,,35.5507471,139.7204692,東京都大田区東六郷1-22-5　東六郷BLACK,080-8500-9217
Ｔｏｋｙｏ　Ｈｏｕｓｅ　Ｋａｍａｔａ　Ｊ／民泊,173983,,,35.5537633,139.7204692,東京都大田区東六郷1-3-7 東六郷1 戸建てJ棟,090-6034-2677
Ｔｏｋｙｏ　Ｈｏｕｓｅ　Ｋａｍａｔａ　Ｌ／民泊,174498,,,35.5537633,139.7204692,東京都大田区東六郷1-3-7東六郷1戸建てL棟,090-6034-2677
Ｔｏｋｙｏ　Ｈｏｕｓｅ　Ｋａｍａｔａ　Ｂ／民泊,174497,,,35.5539465,139.7206239,東京都大田区東六郷1-3-4東六郷B棟,090-6034-2677
Ｔｏｋｙｏ　Ｈｏｍｅ　Ｂａｓｅ　Ｈａｎｅｄａ／民泊,195461,,,35.5540625,139.7204094,東京都大田区東六郷1-3-3　Tokyo Home Base Haneda,080-8500-9217
ＳＫＹＥ　ＨＯＭＥ　ＩＩ／民泊,190894,,,35.5492499,139.7292441,東京都大田区本羽田1-5-17　ＳＫＹＥ　ＨＯＭＥ　ＩＩ,080-4285-7863
ホテルリブマックスＢＵＤＧＥＴ横浜鶴見,108979,,,35.50980345,139.679308,神奈川県横浜市鶴見区鶴見中央1-21-13,045-500-6000
東横ＩＮＮ横浜鶴見駅東口,75293,,,35.50902021,139.6793774,神奈川県横浜市鶴見区鶴見中央1-23-20,045-504-1045
横浜市の便利なお部屋☆部屋に電子ピアノあり・近所に飲食店多数☆／民泊,185231,,,35.5145713,139.673342,神奈川県横浜市鶴見区佃野町25-2　Ｊ　Ｌｏｕｇｅ　Ｙｏｋｏｈａｍａ,080-6545-8378
ＫＯＫＯ　ＨＯＴＥＬ　横浜鶴見,196891,,,35.5081372,139.6796121,神奈川県横浜市鶴見区鶴見中央4-29-1,045-504-8900
Ｄｒｅａｍ蒲田／民泊,199810,,,35.5572685,139.719222,東京都大田区蒲田本町2-7-15 Ｄｒｅａｍ蒲田,070-5582-5490
アーバンステイ南蒲田,197814,,,35.5545273,139.7253113,東京都大田区南蒲田3-7-27,03-6905-6825
Ｔｈｅ　Ｐｒｉｍｅ　ＴＯＫＹＯ　ＨＡＮＥＤＡ／民泊,190144,,,35.5535406,139.7272288,東京都大田区南蒲田3-11-2　Ｔｈｅ　Ｐｒｉｍｅ　ＴＯＫＹＯ　ＨＡＮＥＤＡ1階、2・3階,050-8880-4077
ＫＡＭＡＴＡ　ＡＮＮ／民泊,175020,,,35.5574507,139.7203101,東京都大田区蒲田本町2-6-10KAMATA ANN,090-1436-1220
ビジネスホテルときわ＜神奈川県＞,28778,,,35.50687879,139.6795942,神奈川県横浜市鶴見区鶴見中央4-20-15,045-501-2222
Ｆｏｎｔａｉｎｅ蒲田,197739,,,35.5547083,139.7264431,東京都大田区南蒲田3-6-5,080-8500-9217
ＪＲ東日本ホテルメッツ横浜鶴見,108656,,,35.50740088,139.6766833,神奈川県横浜市鶴見区鶴見中央1-31-2,045-500-5011
クインテッサホテル東京羽田　Ｃｏｍｉｃ＆Ｂｏｏｋｓ,182084,,,35.5572716,139.7252565,東京都大田区南蒲田1-25-13,03-3733-0551
ホテルテトラ鶴見〔旧セントラルプラザホテル〕,9582,,,35.5058233,139.6775777,神奈川県横浜市鶴見区鶴見中央4-5-13,045-504-1122
ＩＭＰＲＥＳＴ　ＳＴＡＹ　Ｔｏｋｙｏ　Ｋａｍａｔａ／民泊,176153,,,35.5563901,139.7274029,東京都大田区西糀谷4－31－3　ＩＭＰＥＳＴ　ＳＴＡＹ　Ｔｏｋｙｏ　Ｋａｍａｔａ,090-6566-7621
Ｇｒａｔｏ　Ｔｅｒｒａｃｅ／民泊,185530,,,35.5575193,139.7259818,東京都大田区南蒲田1-15-7　101号　グラートテラス蒲田,03-6231-0330
ＦＡＭＩＬＩＡ　糀谷／民泊,185173,,,35.55642932,139.7307156,東京都大田区西糀谷4-4-17　ＦＡＭＩＬＩＡ　糀谷,03-6459-6352
Ｎｕｍｅｒｏ　Ｕｎｏ　Ｔｏｋｙｏ,167615,,,35.55359173,139.7355071,東京都大田区西糀谷3-28-9,050-8880-4077
箱根湯本温泉　箱根水明荘,41468,,,35.23211384,139.1031316,神奈川県足柄下郡箱根町湯本702,0460-85-5381
Ｙｕｍｏｔｏ　Ｓｔａｔｉｏｎ　Ｈｏｔｅｌ　ＭＩＲＡＨＡＫＯＮＥ,167885,,,35.23216738,139.102958,神奈川県足柄下郡箱根町湯本698-10,0460-83-8108
箱根水明荘　別館ポサーダ,158300,,,35.23205437,139.1027755,神奈川県足柄下郡箱根町湯本702,0460-85-5381
【箱根湯本駅徒歩３分★ＯＰＥＮ★箱根最安】川のせせらぎを楽しめるお宿「箱根湯本　春夏秋冬」　＾,170511,,,35.2311989,139.1023941,神奈川県足柄下郡箱根町湯本695　春夏秋冬,0460-83-8912
箱根湯本温泉　湯本富士屋ホテル,1729,,,35.23219166,139.1049287,神奈川県足柄下郡箱根町湯本256-1,0460-85-6111
箱根の宿,191562,,,35.2320589,139.1011748,神奈川県足柄下郡箱根町湯本724-1,050-5491-6892
箱根湯本温泉　かっぱ天国,39258,,,35.23349424,139.103326,神奈川県足柄下郡箱根町湯本777,0460-85-6121
箱根湯本温泉　ホテル河鹿荘＜神奈川県＞,31708,,,35.23141108,139.1008124,神奈川県足柄下郡箱根町湯本688,0460-85-5561
箱根を満喫できる一棟貸し【ＢＡＭＢＯＯＨＯＵＳＥ】　＾,194542,,,35.22955273,139.1034938,神奈川県足柄下郡箱根町湯本423-2　ＢＡＭＢＯＯ　ＨＯＵＳＥ　ＹＵＭＯＴＯ,0460-83-8912
箱根湯本温泉　女性に優しい癒しの宿　ホテルマイユクール祥月,19786,,,35.2298224,139.1019846,神奈川県足柄下郡箱根町湯本468-1,0460-85-5748
箱根の山々を望む宿『ＳＡＫＵＲＡ　　ＨＯＵＳＥ』まるまる一棟貸し　＾,194974,,,35.2317267,139.1062148,神奈川県足柄下郡箱根町湯本276-10　ＳＡＫＵＲＡ　　ＨＯＵＳＥ,0460-83-8912
箱寝荘,184549,,,35.2294416,139.10217,神奈川県足柄下郡箱根町湯本462-12,050-5491-6892
箱根湯本温泉　箱根　花紋,19985,,,35.22927252,139.1040789,神奈川県足柄下郡箱根町湯本435,0460-85-5050
Ｇｕｅｓｔｈｏｕｓｅ　Ａｚｉｔｏ,181490,,,35.2295109,139.1017274,神奈川県足柄下郡箱根町湯本491,0460-83-8557
箱根湯本温泉　彌榮館（やえいかん）,18734,,,35.23009178,139.1007541,神奈川県足柄下郡箱根町湯本484,0460-85-5536
Ｈｏｔｅｌ　坐樂閑,184026,,,35.2312365,139.0998308,神奈川県足柄下郡箱根町湯本642-1,0465-24-3636
萬翠楼福住,129428,,,35.23131384,139.0997236,神奈川県足柄下郡箱根町湯本643,0460-85-5531
箱根湯本温泉　箱根藍瑠,162887,,,35.2291193,139.1014186,神奈川県足柄下郡箱根町湯本499-1,0460-85-3300
箱根湯本温泉　ままね湯　ますとみ旅館,29448,,,35.23197487,139.0995903,神奈川県足柄下郡箱根町湯本656,0460-85-5775
箱根湯本温泉　吉池旅館,108157,,,35.23054726,139.0997709,神奈川県足柄下郡箱根町湯本597,0460-85-5711
箱根湯本　温泉旅館「大和館」,187989,,,35.2316455,139.0994907,神奈川県足柄下郡箱根町湯本655,0460-85-5746
箱根湯本温泉　あうら橘,13791,,,35.22884194,139.1016597,神奈川県足柄下郡箱根町湯本574,0460-85-5541
箱・玲瓏,189212,,,35.23033504,139.1069768,神奈川県足柄下郡箱根町湯本380-11,050-5491-6892
箱根青雲　＾,193916,,,35.2304705,139.1070765,神奈川県足柄下郡箱根町湯本380-12　箱根青雲,050-5491-6892
楽宿箱根　Ｒａｋｕｙａｄｏ　Ｈａｋｏｎｅ　＾,195565,,,35.2316082,139.1074816,神奈川県足柄下郡箱根町湯本311-6　楽宿箱根 Rakuyado Hakone,03-6705-5554
郷隅美悦（ＫＹＯ　ＧＵ　ＢＩ　ＥＴＳＵ）,183511,,,35.2295036,139.106602,神奈川県足柄下郡箱根町湯本386-64,070-1369-1334
ＨＡＫＯＮＥ　ＫＯＭＡＣＨＩ－箱根小町,193326,,,35.2305821,139.1075887,神奈川県足柄下郡箱根町湯本368-15,080-1355-3297
箱根湯本温泉　喜仙荘,130716,,,35.22944183,139.0997376,神奈川県足柄下郡箱根町湯本509,0460-85-5701
旅籠きんとうえん,19753,,,35.22885023,139.0997098,神奈川県足柄下郡箱根町湯本520-1,0460-85-5526
ゲストヴィラ箱根湯本,176549,,,35.23246382,139.1082748,神奈川県足柄下郡箱根町湯本300-5,070-1369-1334
ザ・ゲストヴィラ箱根湯本,183897,,,35.2322756,139.108338,神奈川県足柄下郡箱根町湯本301-2,050-5491-6892
箱根湯本温泉　箱根路開雲,19431,,,35.22913073,139.0990293,神奈川県足柄下郡箱根町湯本521-4　,0460-85-6678
ＳＴＡＧＩＯＮＥ箱根湯本,181618,,,35.2323921,139.1087097,神奈川県足柄下郡箱根町湯本327-1　スタジオーネ箱根湯本ＥＡＳＴ－101,070-1369-1334
ＨＯＴＥＬ　ｎｅｈａｋｏ,70823,,,35.23128353,139.1089367,神奈川県足柄下郡箱根町湯本神明町341-1,0460-85-8110
ＴＥＭＡＲＩ,181602,,,35.2326919,139.108887,神奈川県足柄下郡箱根町湯本219　TEMARI WEST,070-1369-1334
月の宿　紗ら（共立リゾート）,149477,,,35.22927732,139.0983692,神奈川県足柄下郡箱根町湯本588-1,0460-85-7888
養生館　はるのひかり,151109,,,35.2282221,139.0991938,神奈川県足柄下郡箱根町湯本554,0460-85-5641
箱根湯本温泉　離れ山家荘,165731,,,35.22918544,139.0979239,神奈川県足柄下郡箱根町湯本592,0460-85-5355
仙景プラザ,187333,,,35.2291154,139.0978359,神奈川県足柄下郡箱根町湯本592-2,0460-85-5500
箱根湯本温泉　ホテル仙景,70712,,,35.22897238,139.097485,神奈川県足柄下郡箱根町湯本592,0460-85-5500
ケイズハウス箱根,151074,,,35.2283998,139.0977884,神奈川県足柄下郡箱根町湯本茶屋12-1,0460-85-9111
【箱根湯本駅近！山沿い川沿い】箱根湯本徒歩８分☆ＷＩＦＩ／人気ゲーム機無料／最大６名／無料駐車場　＾,185487,,,35.2326959,139.1102545,神奈川県足柄下郡箱根町湯本204-2-1　ＨＹグリシーナ1Ｆ102号室,080-2482-0402
箱根湯本温泉　庭園露天を味わう宿　湯さか荘,31681,,,35.22831967,139.0974878,神奈川県足柄下郡箱根町湯本茶屋35,0460-85-5755
箱根湯本温泉　箱根パークス吉野,9669,,,35.22938064,139.0965018,神奈川県足柄下郡箱根町湯本茶屋139-5,0460-85-8111
箱根湯本温泉　静観荘＜神奈川県＞,20447,,,35.22831483,139.0968847,神奈川県足柄下郡箱根町湯本茶屋19,0460-85-5795
スタジオーネ箱根湯本ＶＩＬＬＡ,189213,,,35.2326464,139.1111429,神奈川県足柄下郡箱根町湯本200,03-5366-5959
ゲストヴィラ箱根湯本　ＲｉｖｅｒＳｉｄｅ,178913,,,35.2327663,139.1112967,神奈川県足柄下郡箱根町湯本200-23 ,070-1369-1334
ＭＥＩＢＩ箱根湯本,181625,,,35.2329773,139.1113059,神奈川県足柄下郡箱根町湯本前田200-22　ＭＥＩＢＩ箱根湯本Ａ－1,070-1369-1334
陽だまり　一の湯,74713,,,35.23419951,139.095135,神奈川県足柄下郡箱根町塔之澤54-1,0460-85-5331
近江屋旅館　＜神奈川県＞,129573,,,35.22780302,139.0958435,神奈川県足柄下郡箱根町湯本茶屋116,0460-85-7345
箱根湯本　川風荘,183512,,,35.2329417,139.1121301,神奈川県足柄下郡箱根町湯本186-1,070-1369-1334
福住楼,54675,,,35.23281353,139.0943296,神奈川県足柄下郡箱根町塔之沢74,0460-85-5301
箱根湯本温泉　伊東園ホテル　箱根湯本,40781,,,35.22709755,139.0959352,神奈川県足柄下郡箱根町湯本茶屋95-1,0460-85-7461
箱根湯本温泉　天成園,84721,,,35.22861679,139.0946575,神奈川県足柄下郡箱根町湯本682,0460-83-8511
ＨＡＹＡＴＯ　ＨＡＫＯＮＥ　ＧＵＥＳＴ　ＨＯＵＳＥ／民泊,186356,,,35.22563665,139.0969318,神奈川県足柄下郡箱根町湯本茶屋70　ＨＡＹＡＴＯ　ＨＡＫＯＮＥ　ＧＵＥＳＴ　ＨＯＵＳＥ,050-5491-6892
塔之沢温泉　元湯　環翠楼,31015,,,35.23297461,139.0936324,神奈川県足柄下郡箱根町塔之沢88,0460-85-5511
塔ノ沢　一の湯本館,74734,,,35.2332579,139.0934713,神奈川県足柄下郡箱根町塔ノ沢90,0460-85-5331
箱根湯本温泉　箱根湯本ホテル,29223,,,35.2270753,139.0949548,神奈川県足柄下郡箱根町湯本茶屋97,0460-85-8800
箱根温泉　鶴井の宿　紫雲荘,29488,,,35.23336344,139.0933046,神奈川県足柄下郡箱根町塔之沢92,0460-85-8511
環翠楼　別館,177726,,,35.23250657,139.0928323,神奈川県足柄下郡箱根町塔之澤88　別館,0460-85-5677
四季を味わう宿　山の茶屋,164968,,,35.233413,139.091686,神奈川県足柄下郡箱根町塔ノ沢171,0460-85-5493
箱根湯本温泉　木もれびの宿　ふるさと,107882,,,35.22705578,139.0920717,神奈川県足柄下郡箱根町湯本茶屋191,0460-85-5559
箱根湯本温泉　ホテル　おかだ,19684,,,35.22668083,139.0922494,神奈川県足柄下郡箱根町湯本茶屋191,0460-85-6000
箱根湯本温泉　箱根の森　おかだ,37864,,,35.22633365,139.0922189,神奈川県足柄下郡箱根町湯本茶屋191,0460-85-6711
遊心亭,31237,,,35.22616976,139.091569,神奈川県足柄下郡箱根町湯本茶屋193,0460-85-5757
箱根湯本温泉　ホテル南風荘,30888,,,35.22548651,139.0920273,神奈川県足柄下郡箱根町湯本茶屋179番地,0460-85-5505
金乃竹　塔ノ澤,184578,,,35.233741,139.088847,神奈川県足柄下郡箱根町塔之澤191,0460-85-9800
エミネンス湯本（２０２３年９月新築のアパートメント）　＾,189319,,,35.2372711,139.1185627,神奈川県足柄下郡箱根町湯本52-3　エミネンス湯本,0460-85-6653
ルクス箱根湯本,188109,,,35.2217389,139.0892906,神奈川県足柄下郡箱根町湯本茶屋5,050-1808-5897
箱根湯本温泉　ホテルおくゆもと,5081,,,35.22379211,139.086164,神奈川県足柄下郡箱根町湯本茶屋211,0460-85-6271
豊栄荘,19256,,,35.22373098,139.0852002,神奈川県足柄下郡箱根町湯本茶屋227,0460-85-5763
ヒルトップ箱根入生田　２０２／民泊,171298,,,35.2415427,139.1205221,神奈川県小田原市入生田255-41　Ｈｉｌｌ　Ｔｏｐ　Ｈａｋｏｎｅ　Ｉｒｙｕｄａ　202,080-4086-2001
ヒルトップ箱根入生田２０３／民泊,169509,,,35.2416976,139.1205198,神奈川県小田原市入生田255-41　ヒルトップ箱根入生田,050-5444-6620
コンドミニアム桜Ｂ５　＾,194063,,,35.2231389,139.0841292,神奈川県足柄下郡箱根町湯本茶屋230-32　コンドミニアム桜Ｂ5,090-1450-5985
ホテル山賊,196495,,,35.2420324,139.1234867,神奈川県小田原市入生田47-1,090-1072-7757
はつはな,16108,,,35.22221434,139.079859,神奈川県足柄下郡箱根町須雲川２０-１,0460-85-7321
ＴＩＭｅＳＣＡＰＥ　－ｈａｋｏｎｅ－,197473,,,35.23586721,139.0767366,神奈川県足柄下郡箱根町大平台字姫ノ水452-1,03-5937-9601
『自動麻雀卓設置』箱根散策の拠点地　一棟貸し戸建【Ｃｏｃｏ桜】大平台　＾,186505,,,35.2351841,139.0765615,神奈川県足柄下郡箱根町大平台448　ＣｏＣｏ桜,0460-83-8912
大平台温泉　箱根嶺南荘,78169,,,35.23567384,139.0760699,神奈川県足柄下郡箱根町大平台442-1,0460-82-2898
箱根上の湯,147726,,,35.2361895,139.0746458,神奈川県足柄下郡箱根町大平台535-1,0460-82-6681
あんじゅ　花菜,38719,,,35.23723195,139.0739673,神奈川県足柄下郡箱根町大平台588,0460-82-1134
ＳＭＡＲＴ　ＶＩＬＬＡ　箱根須雲川　Ｒｉｖｅｒｓｉｄｅ,189214,,,35.2210225,139.0760885,神奈川県足柄下郡箱根町須雲川102,03-5366-5959
箱根大平台温泉　湯の花,183292,,,35.2368313,139.0737306,神奈川県足柄下郡箱根町大平台578-1,0460-83-8958
大正モダンヴィラ「禅」　＾,175290,,,35.2361084,139.0734997,神奈川県足柄下郡箱根町大平台548-2大正モダンヴィラ禅,090-5198-3202
箱根湯本大平台温泉　満天の星,39618,,,35.23769022,139.0736062,神奈川県足柄下郡箱根町大平台386,080-9651-6406
大平台温泉　箱根　旅の宿　海本,28301,,,35.23766244,139.0732895,神奈川県足柄下郡箱根町大平台388-1,0460-87-4126
弥千代旅館,130638,,,35.23736524,139.0731173,神奈川県足柄下郡箱根町大平台610,0460-82-2158
大平台温泉　たきい旅館,19358,,,35.2370736,139.0728674,神奈川県足柄下郡箱根町大平台649,0460-82-3516
縁－Ｅｎｉｓｈｉ－　＾,169738,,,35.2387486,139.0730104,神奈川県足柄下郡箱根町大平台329　-Ｅｎｉｓｈｉ,090-5198-3202
いしゐ旅館,130637,,,35.23812348,139.0725979,神奈川県足柄下郡箱根町大平台635,0460-82-2878
自家源泉かけ流しの宿　箱根翠泉,182186,,,35.2396607,139.0720437,神奈川県足柄下郡箱根町大平台254,0460-83-9015
箱根大平台温泉　山水荘,20445,,,35.23758461,139.071173,神奈川県足柄下郡箱根町大平台621,0460-82-2162
ヒルトン小田原リゾート＆スパ,25162,,,35.2047565,139.130111,神奈川県小田原市根府川583-1,0465-29-1000
箱根　ゆとわ,172913,,,35.24802119,139.0480189,神奈川県足柄下郡箱根町強羅1300-27,0460-82-0321
季の湯　雪月花（共立リゾート）,54102,,,35.249516,139.0479801,神奈川県足柄下郡箱根町強羅1300-34,0460-86-1222
強羅温泉　自家源泉掛け流しの宿　強羅環翠楼,39496,,,35.24929107,139.049405,神奈川県足柄下郡箱根町強羅1300-20,0460-82-3141
箱根強羅ホテルパイプのけむりプラス,75252,,,35.24983821,139.04873,神奈川県足柄下郡箱根町強羅1300-19,0460-86-0666
ＳＹＬＡ　ＨＯＴＥＬ　箱根強羅　ＷＥＳＴ,183509,,,35.24975756,139.0475038,神奈川県足柄下郡箱根町強羅1300-763,050-5491-6892
強羅温泉　メルヴェール箱根強羅,5066,,,35.24804112,139.0460914,神奈川県足柄下郡箱根町強羅1300-70,0570-783-144
レジーナリゾート箱根雲外荘,172762,,,35.2496893,139.0467763,神奈川県足柄下郡箱根町強羅1300-46,0460-82-3111
箱根・強羅　佳ら久（オリックスホテルズ＆リゾーツ）,179644,,,35.2500504,139.0496343,神奈川県足柄下郡箱根町強羅1300-8他,0460-83-8860
雪月花別邸　翠雲（共立リゾート）,165555,,,35.2492449,139.0460181,神奈川県足柄下郡箱根町強羅1300-61,0460-85-5489
強羅駅前のジブリ風一軒家。観光拠点に最適！　＇Ｆｏｒｅｓｔ　Ｖｉｌｌａ　Ｈａｋｏｎｅ＇　＾,170564,,,35.2498154,139.0463645,神奈川県足柄下郡箱根町強羅1300-439　Ｆｏｒｅｓｔ　Ｖｉｌｌａ　Ｈａｋｏｎｅ,080-1226-9244
薬師の湯　吉浜,54171,,,35.250427,139.0475468,神奈川県足柄下郡箱根町強羅1300-39,0460-82-2258
強羅ｂａｓｅ　Ｂ棟,184789,,,35.249763,139.0462619,神奈川県足柄下郡箱根町強羅1300-428,050-5491-6892
ＳＹＬＡ　ＨＯＴＥＬ　箱根強羅　ＥＡＳＴ,183508,,,35.2499026,139.0463407,神奈川県足柄下郡箱根町強羅1300-45,050-5491-6892
強羅ｂａｓｅ　Ａ棟,183510,,,35.2498788,139.0462322,神奈川県足柄下郡箱根町強羅1300-464　強羅ｂａｓｅ　Ａ棟,070-1369-1334
強羅温泉　スイートヴィラ箱根強羅,168586,,,35.2475951,139.0454957,神奈川県足柄下郡箱根町強羅1300-74,03-3346-8383
温泉ホテル強羅館,80720,,,35.25079362,139.0472079,神奈川県足柄下郡箱根町強羅1320-241,0460-82-3208
ＷＰＵ　ＨＯＴＥＬ　ＨＡＫＯＮＥ,179928,,,35.2510661,139.047741,神奈川県足柄下郡箱根町強羅1320-179,0460-83-9120
サンダンス・リゾート箱根強羅,149166,,,35.2510851,139.0497132,神奈川県足柄下郡箱根町強羅強羅1300-13,0460-86-0450
温泉付ゲストハウス　HAKONE　TENT,147172,,,35.2512974,139.0469819,神奈川県足柄下郡箱根町強羅1320-257,0460-83-8021
和光荘　Ｈａｒｍｏｎｉｏｕｓ　Ｌｉｇｈｔ,188441,,,35.251333,139.0497119,神奈川県足柄下郡箱根町強羅1304-70,03-5366-5959
大人の隠れ家　箱根　別邸今宵,146134,,,35.24900592,139.044362,神奈川県足柄下郡箱根町強羅1300-658,0570-009-444
天翠茶寮,158542,,,35.25164918,139.0478332,神奈川県足柄下郡箱根町強羅1320-276,0570-062-302
蔵のや,196841,,,35.2487225,139.0441123,神奈川県足柄下郡箱根町強羅1300-424,0460-82-0101
ＨＡＫＯＮＥ　ｇｕｅｓｔｈｏｕｓｅ　ｇａｋｕ．,165027,,,35.2520085,139.0474846,神奈川県足柄下郡箱根町強羅1320-385,0460-83-8223
箱根強羅温泉　楽々花（ららか）,38364,,,35.25156015,139.0454413,神奈川県足柄下郡箱根町強羅1320-270,0460-86-0777
囲炉裏ゲストハウス　天幕,167736,,,35.24441938,139.0504027,神奈川県足柄下郡箱根町二ノ平1121,0460-83-9348
旅宿　四季の彩　箱根彫刻の森　＾,193915,,,35.2438885,139.0499481,神奈川県足柄下郡箱根町二ノ平1118-2　箱根彫刻の森,050-5491-6892
強羅彩香,136880,,,35.25169622,139.0444192,神奈川県足柄下郡箱根町強羅1320-304,0460-82-3371
ホテルインディゴ箱根強羅　ｂｙ　ＩＨＧ,177836,,,35.25269453,139.0503909,神奈川県足柄下郡箱根町木賀新田924-1,0460-83-8310
彫刻の森至近・３ＬＤＫ　＾,195544,,,35.243417,139.0491597,神奈川県足柄下郡箱根町二ノ平1105　彫刻の森,050-3748-0708
ペンション　リバティ・ハウス,130557,,,35.25162398,139.0435109,神奈川県足柄下郡箱根町強羅1320,0460-82-1788
強羅　月の泉,146841,,,35.24682455,139.0420342,神奈川県足柄下郡箱根町強羅1300-173,0460-82-8801
温泉民宿　三花月,141120,,,35.252124,139.043323,神奈川県足柄下郡箱根町強羅1320-360,0460-82-2145
ホテル箱根テラス,166045,,,35.25083919,139.0421175,神奈川県足柄下郡箱根町強羅1320-934,0460-83-9900
源泉かけ流しの宿　櫻休庵　別亭　凛,180299,,,35.2499613,139.0554134,神奈川県足柄下郡箱根町宮城野1348-1,0460-87-7433
四季を愉しむ貸切温泉　ゆとりろ庵,142546,,,35.246896,139.041029,神奈川県足柄下郡箱根町強羅1300-119,0570-783-244
アサンテ・イン,177790,,,35.2515721,139.0546244,神奈川県足柄下郡箱根町宮城野167-10,0460-83-8822
箱根木賀温泉　ＫＫＲ箱根宮の下（国家公務員共済組合連合会宮の下保養所）,29804,,,35.24446674,139.0544686,神奈川県足柄下郡箱根町木賀1014,0460-87-2350
Ｍｅｇｕ　＾,175570,,,35.2515201,139.0415368,神奈川県足柄下郡箱根町強羅1320-836 ,090-5415-8302
Ａ－ｆｒａｍｅ箱根強羅　＾,194951,,,35.24747732,139.0405193,神奈川県足柄下郡箱根町強羅字強羅1300-524　Ａ-ｆｒａｍｅ箱根強羅,0428-14-1335
ゲストハウス縁,168191,,,35.2546332,139.0497121,神奈川県足柄下郡箱根町宮城野626-2,090-4384-1212
強羅温泉　強羅　風の音,139885,,,35.25270841,139.0425533,神奈川県足柄下郡箱根町強羅1320-526,0460-87-6164
Ｒａｋｕｔｅｎ　ＳＴＡＹ　ＶＩＬＬＡ　箱根強羅,195644,,,35.2537902,139.0441748,神奈川県足柄下郡箱根町強羅1320-299,050-1750-9719
スタジオーネ箱根彫刻の森,188440,,,35.2418348,139.04926,神奈川県足柄下郡箱根町小涌谷520-30,050-5491-6892
サムライベース箱根宮城野　＾,195403,,,35.2548192,139.0498799,神奈川県足柄下郡箱根町宮城野578,090-2076-2588
ゆとりろ庵　ＡＮＮＥＸ,158630,,,35.2479087,139.0401716,神奈川県足柄下郡箱根町強羅1300-126,0570-036-766
Ｎａｚｕｎａ箱根宮ノ下,196842,,,35.245753,139.055863,神奈川県足柄下郡箱根町木賀1013-63,0460-83-3915
箱根強羅・林澗,192175,,,35.2537916,139.0435531,神奈川県足柄下郡箱根町強羅1320-298,460839398
箱根ヴェルデの森（旧　小涌谷温泉　ウィスタリアンライフクラブ　ヴェルデの森）,139460,,,35.24198075,139.0451807,神奈川県足柄下郡箱根町二ノ平1274,0460-82-2266
強羅温泉　桐谷　箱根荘,18497,,,35.25097676,139.0405862,神奈川県足柄下郡箱根町強羅1320-598,0460-82-2246
玄　箱根強羅,182450,,,35.2471877,139.0400105,神奈川県足柄下郡箱根町強羅1300-238,0460-82-2229
強羅温泉　ホテルマロウド箱根,1817,,,35.25214609,139.0412222,神奈川県足柄下郡箱根町強羅1320,0460-82-3131
箱根料理宿　弓庵,72000,,,35.24227782,139.0437891,神奈川県足柄下郡箱根町二ノ平1297-248,0460-86-0030
Ａｃｔｉｖｉｔｙ　Ｂａｓｅ　箱根,193473,,,35.2554789,139.0474115,神奈川県足柄下郡箱根町宮城野920‐3,03-5050-4771
プライベートリゾート仙居　＾,195327,,,35.2520417,139.0407024,神奈川県足柄下郡箱根町強羅1320-846　プライベートリゾート仙居,090-7859-5958
箱根強羅　白檀,153496,,,35.2429038,139.0422713,神奈川県足柄下郡箱根町二ノ平1297-5,0460-87-0010
ラフォーレ箱根強羅　湯の棲,68545,,,35.25108784,139.0398641,神奈川県足柄下郡箱根町強羅1320,0460-82-2121
プライベートリゾート犬の日　＾,190777,,,35.2425825,139.0417022,神奈川県足柄下郡箱根町二ノ平1297-201　プライベートリゾート犬の日,090-7859-5958
ＥＫ　Ｈｏｕｓｅ　修身荘　＾,168950,,,35.2422034,139.042193,神奈川県足柄下郡箱根町二ノ平1297－209　ＥＫ　Ｈｏｕｓｅ　修身荘,090-6708-0365
ゆるり箱根ｗｉｔｈＤＯＧＳ,192229,,,35.2472712,139.038449,神奈川県足柄下郡箱根町強羅1300-415,0570-050-130
温泉民宿　みたけ,130551,,,35.24128929,139.0533105,神奈川県足柄下郡箱根町宮ノ下484,0460-82-3175
強羅茶寮,188454,,,35.246027,139.0387485,神奈川県足柄下郡箱根町強羅1300-693,0460-83-9231
箱根つたや旅館,178290,,,35.2440088,139.0569203,神奈川県足柄下郡箱根町底倉240-1,0460-83-9580
箱根星の家,136876,,,35.25328247,139.0563959,神奈川県足柄下郡箱根町宮城野日影山1358-4,0460-87-2371
箱根・翠松園,151465,,,35.2399683,139.0479151,神奈川県足柄下郡箱根町小涌谷519-9,0570-0117-22
Ｒａｋｕｔｅｎ　ＳＴＡＹ　ＴＥＲＲＡＣＥ　箱根小涌谷,190540,,,35.2409339,139.0531813,神奈川県足柄下郡箱根町小涌谷483-2　Ｒａｋｕｔｅｎ　ＳＴＡＹ　ＴＥＲＲＡＣＥ　箱根小涌谷,050-1750-9719
ふふ　箱根,184430,,,35.2532833,139.0399908,神奈川県足柄下郡箱根町強羅1320-807,0570-0117-22
箱根宮城野温泉　ドッグパレスリゾート箱根,53175,,,35.25286031,139.0569764,神奈川県足柄下郡箱根町宮城野1355-1,080-8254-0895
源泉かけ流しの宿　櫻休庵＜ＯＵＫＹＵＡＮ＞,180298,,,35.2546003,139.0551569,神奈川県足柄下郡箱根町宮城野264-2,090-2461-8785
レクトーレ箱根強羅（ＴＫＰ　Ｈｏｔｅｌｓ　＆　Ｒｅｓｏｒｔｓ）,147450,,,35.2525637,139.0391106,神奈川県足柄下郡箱根町強羅1320-762,050-3803-6540
ヴィラ箱根８０,136879,,,35.24151153,139.0548798,神奈川県足柄下郡箱根町宮ノ下476,0460-82-5180
箱根ゲストハウス　ｔｏｉ,153275,,,35.2422155,139.0562141,神奈川県足柄下郡箱根町宮ノ下278-1,0460-83-8301
ゲストヴィラ箱根宮ノ下,176550,,,35.2445058,139.0581551,神奈川県足柄下郡箱根町宮ノ下341-6,070-1369-1334
東急バケーションズ箱根強羅,104685,,,35.25172661,139.0382336,神奈川県足柄下郡箱根町強羅向山1320-599,0120-618-109
Ｉ　ＬＯＶＥ　ＨＡＫＯＮＥ／民泊,186085,,,35.2563156,139.0435276,神奈川県足柄下郡箱根町宮城野900-3　Ｉ　ＬＯＶＥ　ＨＡＫＯＮＥ,03-6231-0330
サンダンス・リゾート箱根宮城野,168152,,,35.24996538,139.0590391,神奈川県足柄下郡箱根町宮城野大東6-6,0460-86-0430
Ｖｉｌｌａ　Ｔｏｍｂｏ　Ｈａｋｏｎｅ,192399,,,35.24821104,139.0372716,神奈川県足柄下郡箱根町強羅1320-866,070-3194-2398
のんびり過ごす、貸別荘スタイルの古民家一棟貸し　＾,175574,,,35.2495168,139.0372913,神奈川県足柄下郡箱根町強羅1320-634,090-5415-8302
ハイアットリージェンシー箱根リゾート＆スパ,184925,,,35.2499371,139.0373682,神奈川県足柄下郡箱根町強羅1320,0460-82-2000
箱根七瀬（旧真奈邸箱根）,137346,,,35.24116435,139.0552409,神奈川県足柄下郡箱根町宮ノ下469-1,0460-86-0810
箱根　杜の宿,172096,,,35.25733211,139.0466232,神奈川県足柄下郡箱根町宮城野833-3,0460-83-3400
ＭＯＮＳ　ＧＯＲＡ,188459,,,35.24848266,139.0368318,神奈川県足柄下郡箱根町強羅1320-738,0460-83-8297
箱根ホテル小涌園,184829,,,35.23887909,139.0474398,神奈川県足柄下郡箱根町ニノ平1297,465225489
富士屋ホテル,1727,,,35.24445019,139.058946,神奈川県足柄下郡箱根町宮ノ下359,0460-82-2211
ウィスタリアンライフクラブ箱根,192657,,,35.2388027,139.0500149,神奈川県足柄下郡箱根町小涌谷491-1,0460-82-4453
強羅温泉　強羅花扇,79294,,,35.24604388,139.036834,神奈川県足柄下郡箱根町強羅1300-681,0460-87-7715
二の平温泉　ペットと泊まる宿　Ｄｏｇ’ｓ　Ｒｅｓｔ　Ｐｌａｃｅ,129468,,,35.240203,139.0417643,神奈川県足柄下郡箱根町二ノ平1297-269,0460-83-8050
箱根　時の雫,108564,,,35.24113106,139.0566325,神奈川県足柄下郡箱根町宮の下416,0460-82-4343
ＬＡＩＳＳＥ　ＰＡＳＳＥ　箱根（ＨＡＫＯＮＥ）,188701,,,35.2578895,139.0453276,神奈川県足柄下郡宮城野820,0460-82-5422
箱根エレカーサ　ホテル＆スパ,76840,,,35.25525171,139.0571985,神奈川県足柄下郡箱根町宮城野1362-16,0460-86-1201
「四季の湯座敷」武蔵野別館,108268,,,35.24065888,139.0563242,神奈川県足柄下郡箱根町宮ノ下４２５－１,0460-82-4341
箱根強羅温泉　ホテル佳山水,79302,,,35.24689376,139.0360562,神奈川県足柄下郡箱根町強羅1320-72,0460-83-3366
箱根小涌園　天悠,158501,,,35.23883914,139.0439097,神奈川県足柄下郡箱根町二ノ平1297,0465-20-0260
水の音（共立リゾート）,50826,,,35.23788679,139.0495804,神奈川県足柄下郡箱根町小涌谷492-23,0460-82-6011
強羅温泉　強羅にごりの湯宿　のうのう箱根,138119,,,35.24837136,139.0353257,神奈川県足柄下郡箱根町強羅1320-1080,0460-83-8181
強羅花扇　円かの杜,147613,,,35.2494862,139.0352944,神奈川県足柄下郡箱根町強羅1320-862,0460-82-4100
箱根小涌園　三河屋旅館,181128,,,35.2373932,139.0466563,神奈川県足柄下郡箱根町小涌谷503,0465-43-8541
ヴィラ　リベルテ箱根強羅,183365,,,35.248312,139.0347404,神奈川県足柄下郡箱根町強羅1320-1095,050-5211-8430
箱根強羅温泉　コージーイン　箱根の山,37475,,,35.24892683,139.0345674,神奈川県足柄下郡箱根町強羅1320　かみごうら,0460-82-1882
金型はこね荘,29157,,,35.237217,139.050678,神奈川県足柄下郡箱根町小涌谷450-24,0460-87-6222
小涌谷・樂　＾,195701,,,35.2368987,139.0490035,神奈川県足柄下郡箱根町小涌谷493-53,050-5491-6892
箱根小涌園　美山楓林,153157,,,35.23666644,139.0478035,神奈川県足柄下郡箱根町小涌谷493-48,0460-82-1605
源泉の宿　千條旅館,54138,,,35.2365536,139.0493333,神奈川県足柄下郡箱根町小湧谷449,0460-82-2205
ホテルハーヴェスト箱根明神平,84789,,,35.26052591,139.0489713,神奈川県足柄下郡箱根町宮城野1488,0460-87-2034
強羅温泉　和の宿　華ごころ,41726,,,35.24731864,139.0332981,神奈川県足柄下郡箱根町強羅1320-883,0460-82-5556
ｎｏｌ　ｈａｋｏｎｅ　ｍｙｏｊｉｎｄａｉ,188264,,,35.260578,139.04914,神奈川県足柄下郡箱根町宮城野1488-205,0460-87-2034
白湯の宿　山田家,54629,,,35.24701034,139.0331787,神奈川県足柄下郡箱根町強羅1320-907,0460-82-2641
箱根吟遊,38490,,,35.24314488,139.0627846,神奈川県足柄下郡箱根町宮ノ下100-1,0460-82-3355
箱根強羅温泉　瑞の香り,158515,,,35.2501416,139.0326447,神奈川県足柄下郡箱根町強羅1321-395,0460-87-1150
ａｂｏｄｅ　ｖｉｌｌａ　ＧＯＲＡ　八代別邸,188833,,,35.2502733,139.0322188,神奈川県足柄下郡箱根町強羅1321-405,080-7819-0324
ｂａｒ　ｈｏｔｅｌ　箱根香山,172961,,,35.234919,139.0485299,神奈川県足柄下郡箱根町小涌谷507-4,0460-82-0111
ｇｒａｎ　ｔｅｒｒａｃｅ　Ｌｅ　Ｌｉｅｎ　箱根,179127,,,35.2480864,139.0313149,神奈川県足柄下郡箱根町強羅1322-36,0460-83-8725
ＫＵＯＮ　箱根強羅　（オープンハウス・ホテルズ＆リゾーツ）,197971,,,35.2495876,139.0300234,神奈川県足柄下郡箱根町強羅1322-32,0460-83-3908
箱根強羅グアムドッグ本店,142874,,,35.249088,139.029527,神奈川県足柄下郡箱根町強羅1322-20,0460-83-8178
ぬくもりの宿　箱根強羅温泉　紬　－ＴＳＵＭＵＧＩ－,168688,,,35.2486417,139.0293312,神奈川県足柄下郡箱根町強羅1322-23,0460-85-0036
ペットと泊まれる宿－モリトソラ箱根－,192238,,,35.2313197,139.0499865,神奈川県足柄下郡箱根町小涌谷439-2,0460-83-8263
ＨＯＴＳＰＲＩＮＧ　ＨＯＵＳＥ　ＩＮ　ＫＯＷＡＫＵＤＡＮＩ　＾,171194,,,35.2305908,139.0477921,神奈川県足柄下郡箱根町小涌谷笛塚443-165　ＨＯＴＳＰＲＩＮＧ　ＨＯＵＳＥ　ＩＮ　ＫＯＷＡＫＵＤＡＮＩ,090-5580-8410
金谷リゾート箱根　＾,169051,,,35.2511765,139.0268395,神奈川県足柄下箱根町仙石原1251-16,050-3684-6895
箱根　ＬＥＯＮ,178416,,,35.2302912,139.0473268,神奈川県足柄下郡箱根町小涌谷443-171,090-3897-2929
雅・小涌谷　かけ流し温泉別荘　＾,170708,,,35.2301227,139.0470049,神奈川県足柄下郡箱根町小涌谷443-145　雅・小涌谷,080-9292-3212
Ｐ＇ｓ　Ｗｏｏｄ　箱根仙石原,196203,,,35.25347,139.02691,神奈川県足柄下郡箱根町仙石原1261-111,070-6450-0371
【源泉かけ流し貸切温泉】グランジョルノ箱根小涌谷　＾,195402,,,35.23001,139.0459167,神奈川県足柄下郡箱根町小涌谷443-155,090-2076-2588
箱根湯の花プリンスホテル,32024,,,35.22591283,139.0376958,神奈川県足柄下郡箱根町芦之湯93,0460-83-5111
『花の影』カップル、ご友人、ご家族利用完全貸切！広々テラス露天風呂付！ポーラ美術館徒歩５分　＾,191212,,,35.25842113,139.0196751,神奈川県足柄下郡箱根町仙石原1285-466-202　花の影,080-4947-4922
フォートリート箱根仙石原,196301,,,35.26626834,139.0255893,神奈川県足柄下郡箱根町仙石原1290,0570-018-888
スイートヴィラ四季ｔｅｒｒａｃｅ　箱根仙石原,183923,,,35.2661295,139.023981,神奈川県足柄下郡箱根町仙石原1286-43,03-3346-8383
全室露天風呂付客室　仙石原温泉　センチュリオン箱根別邸,176633,,,35.2613812,139.0196239,神奈川県足柄下郡箱根町仙石原1285-389,0460-84-5122
箱根和の香,130606,,,35.26337762,139.0206208,神奈川県足柄下郡箱根町仙石原小塚山1285-366,0460-83-8135
小塚久の葉（旧　箱根仙石原虎乃湯）,153202,,,35.26361539,139.0200403,神奈川県足柄下郡箱根町仙石原1285-356,0460-84-0771
Ｆｏｒｅｓｔ　Ｓｕｉｔｅ　Ｈａｋｏｎｅ　Ｓｅｎｇｏｋｕｈａｒａ,189258,,,35.263282,139.0179883,神奈川県足柄下郡箱根町仙石原1285-664,03-5366-5959
ゆぽっぽ箱根（旧温泉宿　停車場）,178627,,,35.2634974,139.0177715,神奈川県足柄下郡箱根町仙石原1285-35,0460-83-8080
箱根リトリート　ｖｉｌｌａ　１／ｆ,192089,,,35.2666671,139.0195258,神奈川県足柄下郡箱根町仙石原1286-116,0460-83-9090
箱根ひばり乃,197922,,,35.2641512,139.016739,神奈川県足柄下郡箱根町仙石原1285-17,0460-83-3977
ジャパン・カントリーサイド箱根,168773,,,35.26646887,139.0184958,神奈川県足柄下郡箱根町仙石原943-20,090-5397-2012
フォレスト箱根,136873,,,35.26451628,139.0167572,神奈川県足柄下郡箱根町仙石原1285-12,0460-84-5588
箱根リトリートｆｏｒｅ,158555,,,35.26924582,139.0197854,神奈川県足柄下郡箱根町仙石原1286-116,0460-83-9090
仙石原　品の木一の湯,74776,,,35.26766871,139.0169987,神奈川県足柄下郡箱根町仙石原940-2,0460-85-5331
ＮＯＡＨ　ＨＡＫＯＮＥ,196743,,,35.2692656,139.0176663,神奈川県足柄下郡箱根町仙石原956-20,0460-83-9277
相睦菴　＾,191119,,,35.2719652,139.0158363,神奈川県足柄下郡箱根町仙石原981-46　相睦菴,050-5491-6892
箱根ふうら,111282,,,35.27350969,139.0157597,神奈川県足柄下郡箱根町仙石原1015-3,0460-83-8215
小田急　山のホテル,16106,,,35.20462035,139.0215841,神奈川県足柄下郡箱根町元箱根80,0460-83-6321
Ｒａｋｕｔｅｎ　ＳＴＡＹ　ＦＵＪＩＭＩ　ＴＥＲＲＡＣＥ　箱根芦ノ湖,189383,,,35.19947844,139.0298787,神奈川県足柄下郡箱根町元箱根三ツ谷2-2　Ｒａｋｕｔｅｎ　ＳＴＡＹ　ＦＵＪＩＭＩ　ＴＥＲＲＡＣＥ　箱根芦ノ湖,050-1750-9719
芦ノ湖温泉　嶽影楼　松坂屋旅館,130153,,,35.20380401,139.0304722,神奈川県足柄下郡箱根町元箱根64,0460-83-6315
箱根芦ノ湖温泉　和心亭　豊月,28275,,,35.20595371,139.0281474,神奈川県足柄下郡箱根町元箱根90-42,0460-83-7788
民宿　大場,130539,,,35.20383181,139.0313055,神奈川県足柄下郡箱根町元箱根55,0460-83-6241
ＲＯＨＥＮ　ＡＳＨＩＮＯＫＯ,181491,,,35.2040543,139.0327345,神奈川県足柄下郡箱根町元箱根106,0460-83-8418
ＧＥＯＳＰＯＴ　ＭＯＴＯＨＡＫＯＮＥ　Ａ,197199,,,35.2054497,139.0320656,神奈川県足柄下郡箱根町元箱根103-243,0460-83-3841
ＶＩＬＬＡ　ＨＡＫＯＮＥ　湖空,184093,,,35.2015404,139.033681,神奈川県足柄下郡箱根町箱根572-61,050-5491-6892
元箱根ゲストハウス,192414,,,35.2055561,139.0336736,神奈川県足柄下郡箱根町元箱根103-246,0460-83-7720
箱根エレガンス,144535,,,35.206887,139.033851,神奈川県足柄下郡箱根町元箱根103-401,0460-83-8756
ホテル四季の館箱根芦ノ湖,183100,,,35.2078521,139.0348837,神奈川県足柄下郡箱根町元箱根103-241,0120-489-166
Ｃａｓａｂｌａｎｃａ　Ｖｉｌｌａ　Ｈａｋｏｎｅ,198836,,,35.2112009,139.0307607,神奈川県足柄下郡箱根町元箱根93-108,050-3551-6687
箱根ホテル,1728,,,35.19090256,139.026087,神奈川県足柄下郡箱根町箱根65,0460-83-6311
ペットと泊まる　ＣＡＲＯ　ＦＯＲＥＳＴＡ　元箱根　ＬＵＣＩＡ,147684,,,35.2083288,139.0362916,神奈川県足柄下郡箱根町元箱根103-78,0460-83-8167
ＧＥＯＳＰＯＴ　ＭＯＴＯＨＡＫＯＮＥ　Ｂ,197200,,,35.20984916,139.0349673,神奈川県足柄下郡箱根町元箱根103-128,0460-83-3841
舜山荘,187208,,,35.2090987,139.0358302,神奈川県足柄下郡箱根町元箱根103-521,03-6279-0620
ときリゾート　箱根別邸,192337,,,35.2101958,139.0346485,神奈川県足柄下郡箱根町元箱根字大芝93-46,0460-83-8146
ＲＥＲＥＳＯ　ＭＯＴＯＨＡＫＯＮＥ（リリゾ元箱根）,198484,,,35.2099361,139.0352288,神奈川県足柄下郡箱根町元箱根103-251,080-3435-0661
箱根芦ノ湖温泉　源泉100％の宿　ＨＯＴＥＬ　Ｒａ　Ｋｕｕｎ　(ホテルラクーン）,10956,,,35.20766765,139.0377076,神奈川県足柄下郡箱根町元箱根103-227,0460-83-6244
ＧＥＯＳＰＯＴ　ＭＯＴＯＨＡＫＯＮＥ　Ｃ,198649,,,35.2099884,139.035662,神奈川県足柄下郡箱根町元箱根103-350,0460-83-3841
芦ノ湖温泉　匠の宿　佳松,129582,,,35.18972776,139.0286091,神奈川県足柄下郡箱根町箱根521,0460-83-6661
ジェムスティーイン箱根・芦ノ湖,158736,,,35.1891698,139.0256,神奈川県足柄下郡箱根町箱根164-1,0460-83-8535
舜芦　芦ノ湖,187256,,,35.1889647,139.0238639,神奈川県足柄下郡箱根町箱根317-1,03-6279-0620
Ｄｏｇ　Ｗｉｔｈ　Ｈｏｔｅｌ　箱根,196288,,,35.1891203,139.029018,神奈川県足柄下郡箱根町箱根512-28,03-5726-8330
Ｈａｋｏｎｅ　Ａｓｈｉｎｏｋｏ　Ｌａｋｅｓｉｄｅ　Ｒｅｓｏｒｔ,191868,,,35.1882978,139.0219702,神奈川県足柄下郡箱根町箱根294,050-5491-6892
芦ノ湖畔に佇む平屋（まるまる貸切）　＾,170739,,,35.1880999,139.0231161,神奈川県足柄下郡箱根町箱根308　雅・芦ノ湖,080-9292-3212
箱根芦ノ湖ゴルフＶｉｌｌａ〜Ｈａｋｏｎｅ　Ｇｏｌｆ　Ｖｉｌａ〜　＾,194866,,,35.18794696,139.0263492,神奈川県足柄下郡箱根町箱根249-3　箱根芦ノ湖ゴルフＶｉｌｌａ,080-3544-1056
龍宮殿（プリンスホテルズ＆リゾーツ）,54621,,,35.2117415,139.0110819,神奈川県足柄下郡箱根町元箱根139,0460-83-1121
ザ・プリンス　箱根芦ノ湖,59637,,,35.21383286,139.0080738,神奈川県足柄下郡箱根町元箱根144,0460-83-1111
箱根園コテージ（プリンスホテルズ＆リゾーツ）,29108,,,35.21390785,139.0080738,神奈川県足柄下郡箱根町元箱根144,0460-83-1111
芦之湯温泉　美肌の湯　きのくにや（本館）,29778,,,35.22093294,139.0419734,神奈川県足柄下郡箱根町芦之湯8,0460-83-7045
箱根芦之湯　松坂屋本店,162929,,,35.22129573,139.0419289,神奈川県足柄下郡箱根町芦之湯57,0460-83-6511
箱根七福荘　＾,171766,,,35.224122,139.0110305,神奈川県足柄下郡箱根町元箱根159-71　箱根七福荘,080-4972-0893
鎌倉スイート,172345,,,35.3197004,139.5510809,神奈川県鎌倉市小町1-6-15　ｉ－ＺＡ鎌倉住居棟3Ｆ,090-4828-2639
ＫＡＭＡＫＵＲＡ　ＨＯＴＥＬ,178285,,,35.3196524,139.5496701,神奈川県鎌倉市御成町12-27,0467-55-5380
ＴＨＥ　ＫＡＭＡＫＵＲＡ＋ＬＩＶＩＮＧ　＾,186317,,,35.3187551,139.5516396,神奈川県鎌倉市小町1-4-4　清和ビル4Ｆ　ＴＨＥ　ＫＡＭＡＫＵＲＡ＋ＬＩＶＩＮＧ,090-3237-8686
Hotel　鎌倉　mori,37896,,,35.31930198,139.5518985,神奈川県鎌倉市小町1-5-21,0467-22-5868
ホテルメトロポリタン鎌倉,177689,,,35.3192309,139.5524426,神奈川県鎌倉市小町1-8-1,0467-60-1250
鎌倉青山／ｋａｍａｋｕｒａｓｅｉｚａｎ,183503,,,35.3203659,139.5491429,神奈川県鎌倉市御成町14-32,0467-23-8801
Ｖｉｌｌａ　Ｓａｃｒａ（ヴィラ・サクラ）,187161,,,35.3207929,139.5500481,神奈川県鎌倉市御成町13-29,0467-40-4070
Ｔｒｅ　ｃａｓａ　ｈｏｔｅｌ　Ｋａｍａｋｕｒａ,197671,,,35.3206811,139.5517644,神奈川県鎌倉市小町2-2-20　Le Ciel Y3小町館３F,050-3354-7833
トーセイホテルココネ鎌倉,182420,,,35.31673001,139.5488123,神奈川県鎌倉市御成町7番10-1号,0467-22-5541
ｐｌａｔ　ｈｏｓｔｅｌ　ｋｅｉｋｙｕ　ｋａｍａｋｕｒａ　ｗａｖｅ,184448,,,35.3156335,139.5496204,神奈川県鎌倉市由比ガ浜2-2-39,0467-81-5005
一棟貸の町宿　ランタン鎌倉,165763,,,35.31561069,139.5493722,神奈川県鎌倉市由比ヶ浜2-2-36,9088150080
ＢＥＮＣＨ,192412,,,35.3181969,139.545729,神奈川県鎌倉市御成町7-13御成町7-ビル1Ｆ,0467-33-4665
アロハ鎌倉,198411,,,35.3151382,139.5489002,神奈川県鎌倉市由比ガ浜2-2-16,03-5810-1768
貸切民宿　ＫＡＭＡＫＵＲＡ　ＦＩＮＥ　ｈｏｕｓｅ,177646,,,35.31489789,139.5520789,神奈川県鎌倉市大町2-1-11,080-7078-8846
Ｏｈｍａｃｈｉ　Ｊｕｎｘｉｏｎ,176961,,,35.3149133,139.5522763,神奈川県鎌倉市大町2-2-35,0467-84-9444
ゲストハウス彩（イロドリ）鎌倉,167331,,,35.3151203,139.5472255,神奈川県鎌倉市由比ガ浜2-4-23,046-737-9471
鎌倉・古都ＨＯＭＥ　＾,191013,,,35.3149518,139.5469646,神奈川県鎌倉市由比ガ浜2-6-8-2　鎌倉・古都ＨＯＭＥ,080-3413-6878
ＧＥＮ　ＨＯＴＥＬ　ＫＡＭＡＫＵＲＡ,179775,,,35.3232699,139.5542857,神奈川県鎌倉市雪ノ下1-8-36,0467-50-0777
クレドメゾン鎌倉／民泊,169731,,,35.3140535,139.5521271,神奈川県鎌倉市大町2-3-20　クレドメゾン鎌倉,070-1398-4623
Ｂｅｄ　ａｎｄ　Ｃａｆｅ　ＢＵＳＳＯ,197639,,,35.3130774,139.5512417,神奈川県鎌倉市材木座1-5-1,090-6762-8832
一棟貸しの宿　寂香庵,189059,,,35.3227588,139.5577078,神奈川県鎌倉市小町3-6-4,03-6705-5554
鎌倉八幡宮ホテル,198904,,,35.3231773,139.5575832,神奈川県鎌倉市雪ノ下3-3-28,080-4850-3759
ＷＥ　ＨＯＭＥ　ＳＴＡＹ　鎌倉・由比ガ浜,187382,,,35.3119913,139.5475524,神奈川県鎌倉市由比ガ浜2-22-1,047-712-7740
鎌倉花月ＨＯＭＥ　＾,189769,,,35.31270363,139.556788,神奈川県鎌倉市大町4-1-51　鎌倉花月ＨＯＭＥ,080-6343-5588
ＴＨＥ　ＣＡＢＩＮ　鎌倉　＾,189410,,,35.3103966,139.5489541,神奈川県鎌倉市材木座3-6-2　ＴＨＥ　ＣＡＢＩＮ　ＫＡＭＡＫＵＲＡ,070-6423-1720
プラージュ由比が浜,161047,,,35.3110735,139.5456839,神奈川県鎌倉市由比ガ浜4丁目4-6,0467-53-8926
Ｙｕｉｇａｈａｍａ　Ａｐａｒｔ　由比ケ浜アパート　＾,174118,,,35.311379,139.544759,神奈川県鎌倉市由比ガ浜4-4-40　由比ヶ浜ハイツ201,070-3850-6603
鎌倉　ａ　ｄａｙ,197941,,,35.3117697,139.5572703,神奈川県鎌倉市大町4-1-40,070-9443-2906
光と水の邸宅　（高級貸別荘　鎌倉・由比ヶ浜）,178242,,,35.310941,139.5451769,神奈川県鎌倉市由比ヶ浜4-4-9,0467-84-7877
たびの邸宅　鎌倉由比ガ浜　ＨＯＭＡＮＮ　ＣＯＮＣＥＰＴ,165617,,,35.3108624,139.5449423,神奈川県鎌倉市由比ガ浜4-4-37-4,050-1808-3727
田　Ｄｅｎ　Ｋａｍａｋｕｒａ　＾,194708,,,35.3236528,139.5610107,神奈川県鎌倉市雪ノ下3-9-24　黒川ビル301,090-3435-1222
ＫＩＹＡＺＡＲＥＳＯＲＴ鎌倉,168619,,,35.30920714,139.5482603,神奈川県鎌倉市材木座5-5-13-1,050-1263-6038
ＫＫＲ鎌倉わかみや（国家公務員共済組合連合会鎌倉保養所）,68515,,,35.31073883,139.5436357,神奈川県鎌倉市由比ガ浜4-6-13,0467-25-4321
ＴＨＥ　ＦＬＯＷ　ＫＡＭＫＵＲＡ　＾,170392,,,35.3093587,139.5472528,神奈川県鎌倉市材木座5-2-9　ＴＨＥ　ＦＬＯＷ　ＫＡＭＡＫＵＲＡ,050-1809-0527
パーパスリゾート　オーシャンビュー鎌倉,180112,,,35.3098884,139.5452339,神奈川県鎌倉市由比ガ浜4-3-35,050-1706-9850
一棟貸しの海宿　ＫＡＭＡＫＵＲＡ　ＳＵＮ＆ＢＲＥＥＺＥ,168192,,,35.30938349,139.5467029,神奈川県鎌倉市材木座5-2-12,0467-91-2246
かいひん荘鎌倉,109016,,,35.3118942,139.541583,神奈川県鎌倉市由比ヶ浜4-8-14,0467-22-0960
Ｙｕｉｇａｈａｍａ　千世　☆由比ヶ浜海水浴場の目の前／部屋に神宿る樹齢二千年の屋久杉☆　＾,169343,,,35.3097955,139.5452041,神奈川県鎌倉市由比ヶ浜4-3-34,050-1721-4419
ダイヤモンド鎌倉別邸ソサエティ,164764,,,35.3133787,139.5397705,神奈川県鎌倉市由比ガ浜3-12-25,050-8890-5770
ＳＨＥＬＬ　ＴＨＥ　ＴＨＩＲＤ,198369,,,35.3086923,139.5490587,神奈川県鎌倉市材木座5-7-14,03-6454-7875
ＢＩＲＤＨＯＴＥＬ,184025,,,35.3112928,139.5416434,神奈川県鎌倉市由比ヶ浜4-8-1,0467-84-7352
古都鎌倉のリゾートホテル　ＷｅＢａｓｅ鎌倉,161178,,,35.3109512,139.5410815,神奈川県鎌倉市由比ガ浜4丁目10-7,0467-22-1221
ＭＡＹＡ,192367,,,35.3077908,139.5519523,神奈川県鎌倉市材木座3-17-29,0467-60-4020
Ｏｌｄ　Ｊａｐａｎｅｓｅ　Ｇｕｅｓｔ　ｈｏｕｓｅ　ＩＯＲＩ　菴　＾,189784,,,35.30966013,139.5587325,神奈川県鎌倉市材木座2-14-12　ＩＯＲＩ,0467-38-5910
海辺のＢｅｄ＆Ｂｒｅａｋｆａｓｔ　ＧＯＯＤ　ＭＯＲＮＩＮＧ　ＺＡＩＭＯＫＵＺＡ,153573,,,35.3076914,139.547823,神奈川県鎌倉市材木座5-8-25 材木座テラス1F,070-9229-1346
ＺＡＩＭＯＫＵＺＡ　ＳＥＡＳＯＮＳ,179807,,,35.3076914,139.547823,神奈川県鎌倉市材木座5-8-25　材木座テラス1Ｆ,0467-91-9216
ＴＨＥ　ＶＩＥＷ　ＫＡＭＡＫＵＲＡ,191608,,,35.3076914,139.547823,神奈川県鎌倉市材木座5-8-25材木座テラス3Ｆ,0467-38-8231
亀時間,137884,,,35.30734777,139.5522184,神奈川県鎌倉市材木座3-17-21,0467-25-1166
材木座の家,187371,,,35.3072092,139.5484267,神奈川県鎌倉市材木座5-10-40,080-5497-9221
ＵＭＩＴＯ　ＶＩＬＬＡ　ＫＡＭＡＫＵＲＡ　ＺＡＩＭＯＫＵＺＡ,196394,,,35.3069817,139.5486655,神奈川県鎌倉市材木座5-10-44,0467-73-9188
ＢＲＢ－ＫＨ：２０２４／１１オープン　海と歴史を満喫する鎌倉の新築隠れ家　＾,191073,,,35.3112742,139.5388089,神奈川県鎌倉市長谷2-7-38　ＢＲＢ　Ｋａｍａｋｕｒａ　Ｈａｓｅ,050-1721-4419
ＡＴＴＡ　ＨＯＴＥＬ　大仏坂／民泊,170074,,,35.3092512,139.5597254,神奈川県鎌倉市長谷4-7-16　ＡＴＴＡ　ＨＯＴＥＬ　Ｄａｉｂｕｔｓｕｚａｋａ,080-4008-5898
ＡＴＴＡ　ＨＯＴＥＬ　ＫＡＭＡＫＵＲＡ,168571,,,35.30916954,139.5596797,神奈川県鎌倉市大町5-5-9,000-0000-0000
ＡＴＴＡ　ＨＯＴＥＬ　ＫＡＭＡＫＵＲＡ　碧蔵,173118,,,35.3090325,139.5594886,神奈川県鎌倉市大町5-4-36,0467-25-5854
ＡＫＡＭＡ鎌倉,196070,,,35.3110026,139.5383543,神奈川県鎌倉市長谷2-7-29,0467-81-4405
旅心飯店,192157,,,35.3148754,139.5352266,神奈川県鎌倉市長谷1-16-26,050-1793-6144
ｇｕｅｓｔ　ｈｏｕｓｅ　ＳＨＩＢＡＦＵ,168322,,,35.3136291,139.5353905,神奈川県鎌倉市長谷1-15-22,0467-38-3876
長谷壱番館「お宿」／民泊,185711,,,35.3117438,139.5364198,神奈川県鎌倉市長谷2-12-17　Ｈａｓｅ　Ｉｃｈｉｂａｎｋａｎ　＂Ｏｙａｄｏ＂,090-4490-1616
琥珀－ＡＭＢＥＲ－鎌倉・材木座,167276,,,35.3053715,139.5516416,神奈川県鎌倉市材木座6-4-4,03-6263-0615
Ｔ－ＲＥＥＦ　Ｖａｃａｔｉｏｎ　Ｈｏｕｓｅ　翡翠　－Ｊａｄｅ－,184127,,,35.3052776,139.5514904,神奈川県鎌倉市材木座6-4-4,03-6263-0615
Ｚａｉｍｏｋｕｚａ　ＳＯＬＡ,187567,,,35.3051403,139.5511718,神奈川県鎌倉市材木座6-4-24,0467-28-0728
タローズハウス鎌倉ＨＡＳＥ,178201,,,35.3110434,139.5363327,神奈川県鎌倉市長谷2-18-4,090-4828-2639
ＳＹＭＰＯＳＩＯＮ　Ｌｏｃａｎｄａ,191923,,,35.3108435,139.5360144,神奈川県鎌倉市長谷2-17-23,0467-33-6144
女性専用－Ｉｎｎ　Ｂｙ　Ｔｈｅ　Ｓｅａ　Ｋａｍａｋｕｒａ－Ｗｏｍｅｎ’ｓ　Ｇｕｅｓｔｈｏｕｓｅ,147670,,,35.30994582,139.5362643,神奈川県鎌倉市長谷2-22-32,8043227862
Ｂ．Ｂ．Ｈｏｕｓｅ,138085,,,35.30987484,139.5363169,神奈川県鎌倉市長谷2-22-31,0467-25-5859
Ｕｓｈｉｏ　ｈｏｓｔｅｌ,177559,,,35.310157,139.5352686,神奈川県鎌倉市坂ノ下9-6,0467-53-7779
北欧ビーチハウス－長谷寺,187602,,,35.3097885,139.5351791,神奈川県鎌倉市坂ノ下13-3,090-4490-1616
ＩＺＡ鎌倉　ゲストハウス＆バー,144540,,,35.310068,139.53486,神奈川県鎌倉市坂ノ下11-7,0467-33-5118
ａｍａｎａ　ｄａｙｚ　ＫＡＭＡＫＵＲＡ　＾,199707,,,35.3035076,139.5547333,神奈川県鎌倉市材木座6-52-4,080-7656-6301
鎌倉楽庵ハナレ,192859,,,35.3101839,139.5341996,神奈川県鎌倉市坂ノ下16-9,0467-53-9666
古民家の宿　鎌倉楽庵　＾,189473,,,35.3102749,139.5340653,神奈川県鎌倉市坂ノ下16-11　Ｋａｍａｋｕｒａ　Ｒａｋｕａｎ,0467-53-9666
Ｖｉｌｌａ　Ｋａｍａｋｕｒａ　＾,175447,,,35.309525,139.53445,神奈川県鎌倉市坂ノ下15-14Villa Kamakura,050-1721-4419
ｈａｌｅｔｔｏ　ｈｏｕｓｅ　ＳＡＫＡＮＯＳＨＩＴＡ,172904,,,35.3093764,139.5340653,神奈川県鎌倉市坂ノ下20-14,090-4490-1616
Ｈａｌｅ　Ｋｏｔｓｕｂｏ／民泊,189860,,,35.3035945,139.5583577,神奈川県逗子市小坪6-16-23　Ｈａｌｅ　Ｋｏｔｓｕｂｏ,090-2411-7125
Ｋａｍａｋｕｒａ　Ｉｎｔｅｒｎａｔｉｏｎａｌ　Ｈｏｕｓｅ（Ｍｉｎ．　１　ｆｅｍａｌｅ　ｇｕｅｓ／民泊,170389,,,35.3213253,139.5297489,神奈川県鎌倉市常盤1008-2　Ｋａｍａｋｕｒａ　Ｉｎｔｅｒｎａｔｉｏｎａｌ　Ｈｏｕｓｅ,090-2629-8244
鎌倉とばり／民泊,199542,,,35.3252174,139.5713149,神奈川県鎌倉市二階堂773-75　Ｋａｍａｋｕｒａ　Ｔｏｂａｒｉ,050-1741-0183
ゲストハウス　鎌倉ＺＥＮーＪＩ,162760,,,35.3079208,139.5328794,神奈川県鎌倉市坂ノ下28-7,046-737-9355
Ｃｏｎｄｏ　Ｓｔａｙ　鎌倉　坂の下　希／民泊,194169,,,35.3073769,139.5332499,神奈川県鎌倉市坂ノ下27-38-101．201　Ｃｏｎｄｏ　Ｓｔａｙ　鎌倉　坂の下　希,050-1741-0183
ＴＨＥ　ＨＡＲＢＯＲ　ＴＥＲＲＡＣＥ（ザハーバーテラス）,182721,,,35.3008145,139.5527509,神奈川県逗子市小坪5-14-7,0467-39-5188
ＨＡＳＥ　ＴＥＲＲＡＣＥ,166060,,,35.3074541,139.5327516,神奈川県鎌倉市坂ノ下28-12,090-1880-2090
ゲストハウス　ＳｕｎーＳｕｉ鎌倉,192354,,,35.307505,139.5326203,神奈川県鎌倉市坂ノ下28-11,046-737-9355
【鎌倉　藤花楼】和の心　有名庭師が手がけた日本庭園のある９５ｍ２の邸宅。／民泊,169041,,,35.3360838,139.5401516,神奈川県鎌倉市山ノ内884－3　藤花楼　ｋａｍａｋｕｒａ,080-1410-8103
鎌倉ＢＵＮＧＯ／民泊,186547,,,35.3198736,139.573971,神奈川県鎌倉市浄明寺4-4-24　鎌倉ＢＵＮＧＯ,080-7302-0404
トラストメゾン常盤　＾,170199,,,35.3230611,139.5261203,神奈川県鎌倉市常盤425-16　Ｔｒｕｓｔ　Ｍａｉｓｏｎ　Ｔｏｋｉｗａ,070-3311-7637
鎌倉パークホテル,31648,,,35.3052447,139.5322035,神奈川県鎌倉市坂ノ下33-6,0467-25-5121
小坪海岸　凛花,16584,,,35.29789614,139.5554269,神奈川県逗子市小坪5-8-3,0467-25-2340
忍者ホテル鎌倉　＾,170601,,,35.3249851,139.5242173,神奈川県鎌倉市常盤375-3　Ｎｉｎｊａ　Ｈｏｔｅｌ　Ｋａｍａｋｕｒａ,080-4086-2001
逗子小坪ＯＮＤａ（Ｚｕｓｈｉ　ｋｏｔｓｕｂｏ　ＯＮＤａ）【古民家一棟貸し宿】,192644,,,35.296509,139.5581854,神奈川県逗子市小坪4-12-13,080-9477-7823
オープンハウス桜櫻－鎌倉山店－／民泊,185710,,,35.3211598,139.5203039,神奈川県鎌倉市鎌倉山1-8-8　Ｏｐｅｎ　Ｈｏｕｓｅ　Ｓａｋｕｒａｓａｋｕｒａ　-　Ｋａｍａｋｕｒａｙａｍａ　,0467-26-3774
ＫＫＲ逗子　松汀園（国家公務員共済組合連合会逗子保養所）,70662,,,35.29611896,139.5706701,神奈川県逗子市新宿3-2-26,046-871-2042
３ｒｄ　ＨＯＵＳＥ　ＩＮＡＭＵＲＡＧＡＳＡＫＩ／民泊,186388,,,35.303504,139.5206121,神奈川県鎌倉市稲村ガ崎3-5-22　3ｒｄ　ＨＯＵＳＥ　ＩＮＡＭＵＲＡＧＡＳＡＫＩ,0467-25-3321
ＺＵＳＨＩ　Ｆｕｎｎｙ　ｈｏｕｓｅ,188882,,,35.2942341,139.5703536,神奈川県逗子市新宿2-13-20,045-211-5366
ＦＬＡＧ　Ｚｕｓｈｉ,177852,,,35.2982181,139.5766969,神奈川県逗子市山の根1-3-26,046-845-9293
逗子海岸から徒歩２分！海辺の貸し切りアパート　＾,194138,,,35.2930246,139.5731483,神奈川県逗子市新宿2-2-30　逗子海岸テラス3階,080-9423-2729
ゼットランド江の島　＾,195489,,,35.3087953,139.482298,"神奈川県藤沢市片瀬海岸2-16-24　ゼットランド江の島102,103,201,302",080-8500-9217
Ｋａｏｒｕ　Ｒｅｓｏｒｔ　江ノ島　＾,185269,,,35.30954869,139.4821938,神奈川県藤沢市片瀬海岸2-15-25　Ｋａｏｒｕ　Ｒｅｓｏｒｔ　Ｅｎｏｓｈｉｍａ,090-4925-5903
江ノ島ゲストハウス１３４,158688,,,35.30916253,139.482409,神奈川県藤沢市片瀬海岸2-15-15,0466-96-0265
Ｒｉｎ　凛,179385,,,35.3106974,139.4808673,神奈川県藤沢市片瀬海岸2-13-4-101,000-0000-0000
Ｇｒａｎｄ　Ｂｌｅｕ／民泊,173871,,,35.3105754,139.4816034,神奈川県藤沢市片瀬海岸2-11-18Grand　Bleu,090-1702-7302
Ｒａｎａ江ノ島　＾,194461,,,35.3096098,139.4833851,神奈川県藤沢市片瀬海岸2-9-4　Ｒａｎａ江ノ島,090-1665-2539
３ｒｄ　ＰＬＡＣＥ　ｂｙ　ＨＩＤＥＯＵＴ（サードプレイス）,172681,,,35.30806408,139.4850249,神奈川県藤沢市片瀬海岸1-13-18　2Ｆ,0466-54-9720
江ノ島テラス,191711,,,35.3124154,139.4791584,神奈川県藤沢市片瀬海岸3-20-20,03-6705-5554
紀伊国屋旅館,5201,,,35.30844588,139.4853102,神奈川県藤沢市片瀬海岸1-13-16,0466-22-4247
ほてる彩夏,70652,,,35.3083709,139.4858296,神奈川県藤沢市片瀬海岸1-11-22,0466-22-4246
ＩＺＡ江ノ島ゲストハウス,162975,,,35.30920781,139.4864052,神奈川県藤沢市片瀬海岸1-11-31,0466-53-9315
暮らすように泊まって欲しい！ワーケーション向き２ＬＤＫ貸切★ラナ江ノ島　＾,186162,,,35.3129615,139.4854816,神奈川県藤沢市片瀬4-18-11　1階　ラナ江ノ島,080-3366-0595
Ｋａｍｅｙａ　Ｈｏｕｓｅ　＾,185828,,,35.31317,139.4858649,神奈川県藤沢市片瀬4-17-9　亀谷ハウスＢ号室　ＫＡＭＥＹＡ　ＨＯＵＳＥ　ＥＮＯＳＨＩＭＡ,090-6531-3376
Ｓａｎｇｏ　Ｋａｔａｓｅ　Ｇｕｅｓｔ　Ｒｏｏｍｓ,172791,,,35.3140392,139.4846142,神奈川県藤沢市片瀬4-16-27,0466-90-3035
湘南かたせ家　＾,186681,,,35.3142005,139.4850962,神奈川県藤沢市片瀬4-16-13　湘南かたせ家,090-4018-5457
ほてる汐彩,106222,,,35.30845708,139.4886154,神奈川県藤沢市片瀬海岸1-7-3,0466-22-4241
湘南・片瀬海岸　ＫＫＲ江ノ島ニュー向洋（国家公務員共済組合連合会片瀬保養所）,70727,,,35.30933754,139.4887709,神奈川県藤沢市片瀬海岸1-7-23,0466-23-7710
Ｅｎｏｓｈｉｍａ　Ａｐａｒｔｍｅｎｔ　Ｈｏｔｅｌ,183552,,,35.31165276,139.4880454,神奈川県藤沢市片瀬3-14-39,0467-38-4504
ＵＭＩＴＯ　ＫＡＭＡＫＵＲＡ　ＫＯＳＨＩＧＯＥ,196338,,,35.3085115,139.4889254,神奈川県鎌倉市腰越3-12-16,046-755-8084
湘南江の島　御料理旅館　恵比寿屋,15437,,,35.30191594,139.4810552,神奈川県藤沢市江の島1-4-16,0466-22-4105
江の島ホテル,179415,,,35.30164233,139.4820244,神奈川県藤沢市江の島-1-3-8,0466-21-6688
Ｓｅａ　Ｂｒｅｅｚｅ　鎌倉　１０２　＾,190094,,,35.309527,139.4893725,神奈川県鎌倉市腰越3-13-10　カルム江の島102,080-6669-2332
Ｓｅａ　Ｂｒｅｅｓｅ　鎌倉　１０１　＾,190904,,,35.3095215,139.4893888,神奈川県鎌倉市腰越3-13-10　カルム江の島101,080-6669-2332
Ｔ－ＲＥＥＦ　Ｖａｃａｔｉｏｎ　Ｈｏｕｓｅ　Ｐｉｎｅ　Ｔｒｅｅ,166234,,,35.3091092,139.4894416,神奈川県鎌倉市腰越3-11-29　サニーメゾン湘南201　,03-6263-0615
ＴーＲＥＥＦ　Ｖａｃａｔｉｏｎ　Ｈｏｕｓｅ　Ｌｅａｆ,166235,,,35.3091092,139.4894416,神奈川県鎌倉市腰越3-11-29　サニーメゾン湘南101　,03-6263-0615
湘南・江の島の海と富士山を望む歴史の宿　岩本楼本館,84915,,,35.30130766,139.4802692,神奈川県藤沢市江の島2-2-7,0466-26-4121
江ノ島マリンハウス　＾,171790,,,35.3009715,139.4822491,神奈川県藤沢市江の島1-6-3号　Ｍａｒｉｎｅ　Ｈｏｕｓｅ,090-3400-6940
Ｒ．ＫＡＭＡＫＵＲＡ,195999,,,35.3102024,139.4901094,神奈川県鎌倉市腰越3-14-5　グランディア鎌倉101,050-3615-7129
木賃屋　弥五郎　＾,170559,,,35.3008746,139.4817824,神奈川県藤沢市江の島1-5-6,090-8084-7339
ＢＲＥＡＴＨ　ＨＯＴＥＬ（ブレスホテル）,147040,,,35.31509112,139.4744284,神奈川県藤沢市鵠沼海岸1-7-11,0466-47-7722
江ノ島　２階建て戸建て／民泊,199742,,,35.3005637,139.4818276,神奈川県藤沢市江の島1-5-9,070-4442-3502
別邸　江ノ島,183724,,,35.3108451,139.4907935,神奈川県鎌倉市腰越3-15-9,090-4490-1616
加美屋リゾート　江ノ島,184097,,,35.3000907,139.4813144,神奈川県藤沢市江の島1-5-16　階段のふもとの白黒の家,03-6705-5554
ＥＫ　Ｈｏｕｓｅ　江ノ島　＾,168979,,,35.3085906,139.4912238,神奈川県鎌倉市腰越3－4－13　ＥＫ　Ｈｏｕｓｅ　江ノ島,090-6708-0365
ボンテ　＾,170587,,,35.3108954,139.4910519,神奈川県鎌倉市腰越3-16-17　Ｇｕｅｓｔｈｏｕｓｅ　Ｂｏｎｔｅ,090-6664-5167
かきや旅館,28657,,,35.30917651,139.4914346,神奈川県鎌倉市腰越3-7-24,0467-32-4828
ＫＯＳＨＩＧＯＥ　ｓｅａｓｉｄｅ　ｉｎｎ,183553,,,35.3086248,139.4917475,神奈川県鎌倉市腰越3-3-16,0467-38-4504
ＨＯＴＥＬ　ＡＯ　ＫＡＭＡＫＵＲＡ,182175,,,35.3083207,139.4919959,神奈川県鎌倉市腰越 3-1-7,0467-55-5512
ＨＯＴＥＬＮＯＡＨ・ＲＥＳＯＲＴ湘南【大人専用１８禁・ハピホテ提携】,163278,,,35.3160218,139.4730819,神奈川県藤沢市鵠沼海岸1-11-16,0466-35-7231
Ｂｙ　ｔｈｅ　ｐｉｅｒ　江の島ｖｉｅｗ,192913,,,35.30792996,139.4925514,神奈川県鎌倉市腰越2丁目13-11　2Ｆ,090-4490-1616
Ｔｈｅ　ｅｌｅｍｅｎｔ,192914,,,35.3079291,139.4925623,神奈川県鎌倉市腰越2-13-11　1Ｆ,090-4490-1616
Ｔｒａｗｌ,187931,,,35.3100621,139.4927511,神奈川県鎌倉市腰越3-27-16,080-6898-1122
ｈａｌｅｔｔｏ　ｈｏｕｓｅ　ＫＯＳＨＩＧＯＥ,164881,,,35.3078288,139.4929718,神奈川県鎌倉市腰越2-12-9,090-4490-1616
ＦＯＬＫ　Ｋｏｓｈｉｇｏｅ　＾,171140,,,35.3106678,139.4929608,神奈川県鎌倉市腰越3-28-14　1階　ＦＯＬＫ　Ｋｏｓｈｉｇｏｅ,080-2117-3217
Ａｋｉｔａｙａ　Ａｎｎｅｘ,179978,,,35.3080856,139.4932182,神奈川県鎌倉市腰越2-12-20,0467-31-7825
築浅一軒家海街生活　Ｒ＆Ｌ　ＨＯＵＳＥ湘南／任天堂スイッチ／Ａｍａｚｏｎビデオ／コーヒー飲み放題　＾,168926,,,35.3182773,139.4859246,神奈川県藤沢市片瀬2－16－14,090-8346-1752
ホテル江ノ島アパートメント／民泊,186684,,,35.3184133,139.4859136,神奈川県藤沢市片瀬2-16-34　Ｈｏｔｅｌ　Ｅｎｏｓｈｉｍａ　ａｐａｒｔｍｅｎｔ,090-4018-5457
ホテル江ノ島アパートメント※旅館業※　＾,186685,,,35.3184133,139.4859136,神奈川県藤沢市片瀬2-16-34　101・102・201・202・203　Ｈｏｔｅｌ　Ｅｎｏｓｈｉｍａ　Ａｐａｒｔｍｅｎｔ,090-4018-5457
ＫＵＧＥＮＵＭＡ　ＩＮＮ　&　ＳＵＩＴＥＳ,180141,,,35.3168759,139.4718872,神奈川県藤沢市鵠沼海岸1-16-8,0466-20-8028
江の島の見える宿　腰越みなと館　＾,171636,,,35.3075573,139.4937349,神奈川県鎌倉市腰越2-10-20　海街生活　腰越みなと館,090-4077-3106
秋田屋,136927,,,35.30728513,139.4940872,神奈川県鎌倉市腰越2-10-30,0467-31-7825
ｋｕｇｅｎｕｍａーｓｕｒｆーｎーｓｔａｙ　＾,194781,,,35.3184363,139.472441,神奈川県藤沢市鵠沼海岸2-1-10　203　ｋｕｇｅｎｕｍａーｓｕｒｆーｎーｓｔａｙ,090-1665-2539
ＳＨＯＮＡＮ　ｇａｒｄｅｎ　＾,171216,,,35.3067436,139.4946182,神奈川県鎌倉市腰越2-6-3　ＳＨＯＮＡＮ　ｇａｒｄｅｎ,090-6003-4206
Ｇａｔｅ　Ｒｅｓｏｒｔｓ　Ｋｕｇｅｎｕｍａ　Ｋａｉｇａｎ,196454,,,35.3186594,139.4720419,神奈川県藤沢市鵠沼海岸2-7-5,0466-66-8871
山葵－ＷＡＳＡＢＩ－／民泊,171275,,,35.309732,139.5005823,神奈川県鎌倉市腰越753-2　ＷＡＳＡＢＩ,090-1702-7302
Ｏｙａｄｏ　ｘ　４Ｒ,198419,,,35.3123347,139.5002642,神奈川県鎌倉市腰越851,080-4321-8396
ＲＩＶＥＲＳＩＤＥ　ＩＮＮ　ＫＡＭＡＫＵＲＡ,183554,,,35.3147614,139.5006916,神奈川県鎌倉市津西1-4-2,0467-38-4504
Ｔ－ＲＥＥＦ　Ｖａｃａｔｉｏｎ　Ｈｏｕｓｅ　ＢＬＵＥ　ＬＡＧＯＯＮ,164690,,,35.3145393,139.5011322,神奈川県鎌倉市津西1-5-20,03-6263-0615
ｅｎｏｃａ　ｈｏｔｅｌ,167680,,,35.32724218,139.4874862,神奈川県藤沢市鵠沼藤が谷1-10-29,0466-54-7833
江の島　ＨＯＭＥＩＩ　＾,186742,,,35.3305287,139.4855967,神奈川県藤沢市鵠沼石上3-4-8　Ｅｎｏｓｈｉｍａ　ＨＯＭＥＩＩ,080-3413-6878
ＥＭＳ．江ノ電、石上の昭和のモダン（？）な家／民泊,174141,,,35.33126483,139.486169,神奈川県藤沢市鵠沼石上3-1-22,050-5444-6620
ＨＯＴＥＬ１３４鎌倉,196609,,,35.3053947,139.5113662,神奈川県鎌倉市七里ヶ浜東2-2-2,0467-73-9982
ホテル法華クラブ湘南藤沢,123,,,35.33550407,139.4894837,神奈川県藤沢市鵠沼石上1-6-1,0466-27-6101
ホテルニューヨコスカ,497,,,35.28146759,139.6666209,神奈川県横須賀市本町1-12,046-820-1111
メルキュールホテル横須賀,84673,,,35.28105085,139.6621602,神奈川県横須賀市本町3-27,046-821-1111
ドリームロッジ横須賀中央／民泊,191168,,,35.27903632,139.6659487,神奈川県横須賀市汐入町3-25　ドリームロッジ横須賀中央,080-4947-4922
ホテル　ハーバー横須賀,17907,,,35.28109117,139.6608043,神奈川県横須賀市汐入町2-7,046-822-0001
セントラルホテル＜神奈川県横須賀市＞,18350,,,35.27928179,139.6693902,神奈川県横須賀市若松町2-8,046-827-1111
セントラルパークアパートメントホテル,179442,,,35.28151926,139.6704211,神奈川県横須賀市大滝町2-17-10,0468-54-4260
ホテルニューポートヨコスカ,183361,,,35.28295681,139.6706604,神奈川県横須賀市小川町2-13,046-828-1111
ホテル　パレス,136857,,,35.27948739,139.6719872,神奈川県横須賀市若松町1-11,046-827-3000
ＳＯＨＯ横須賀中央／民泊,174150,,,35.279746,139.674775,神奈川県横須賀市日の出町1-8,046-825-3786
ウィークリーマンションシャトーブラン,68271,,,35.27738492,139.6745509,神奈川県横須賀市米が浜通1-17,046-824-4455
ホテル　横須賀,31889,,,35.27597398,139.6751259,神奈川県横須賀市米が浜通2-7,046-825-1111
ＧＦ　Ｓｎｏｗ　Ｗｈｉｔｅ／民泊,174157,,,35.27544078,139.6756551,神奈川県横須賀市米が浜通2-13,046-825-3786
ビジネス旅館しろがね,147522,,,35.2724278,139.6762221,神奈川県横須賀市安浦町2-13,046-822-3032
ホテルサガミイン,53249,,,35.27249107,139.6763093,神奈川県横須賀市安浦町2-13,0468-22-4400
【一棟貸別荘】横須賀の民泊　泊まって遊べる古民家スタジオ　いりやまずのおうち／民泊,194230,,,35.2690352,139.6585315,神奈川県横須賀市不入斗町3-32　横須賀の民泊　いりやまずのおうち＆なりやまずスタジオ,080-5757-2443
阿部倉温泉,197316,,,35.2569059,139.6347393,神奈川県横須賀市阿部倉32-2,046-876-5570
アパホテル〈相模原　橋本駅前〉,143287,,,35.596897,139.345843,神奈川県相模原市緑区橋本6-4-12,0570-051-511
アパホテル＜相模原橋本駅東＞（旧：アイホテル橋本）,171895,,,35.59409637,139.3477318,神奈川県相模原市緑区橋本3-14-14,042-700-1225
東横ＩＮＮ京王線橋本駅北口,108626,,,35.59422127,139.3481549,神奈川県相模原市緑区橋本3-2-8 ,042-770-1045
橋本パークホテル,4618,,,35.59461015,139.349527,神奈川県相模原市緑区橋本3-4-4,042-774-6112
ＤＰ小山町,198399,,,35.60098842,139.3576051,東京都町田市小山町3468-7,080-3938-6602
ホテルリブマックス南橋本駅前,158634,,,35.5806669,139.3521198,神奈川県相模原市中央区南橋本2-3-6-1,042-772-7733
ラクシオ・イン,68643,,,35.61023882,139.3447851,東京都町田市小山ヶ丘6-3-3,042-774-0940
ホテルリブマックス相模原駅前,162701,,,35.577264,139.3685934,神奈川県相模原市中央区相模原7-1-28,042-730-1300
ホテルクラウンヒルズ相模原駅前（ＢＢＨホテルグループ）,39165,,,35.58040957,139.3721701,神奈川県相模原市中央区相模原4-1-2,050-3196-1185
東横ＩＮＮＪＲ横浜線相模原駅前,73949,,,35.58014572,139.3725673,神奈川県相模原市中央区相模原4-1-16,042-862-1045