宿名,楽天ID,じゃらんID,YahooID,緯度,経度,住所,電話番号
別府駅西口前　ホテル　フジヨシ,778,,,33.28001365,131.4999822,大分県別府市野口元町1-3,0977-23-3384
別府駅前　ホテルシーウェーブ別府,9401,,,33.27908044,131.5008821,大分県別府市駅前町12-8,0977-27-1311
ビジネスホテル　スター,5730,,,33.27929984,131.49946,大分県別府市田の湯町10-29,0977-25-1188
Ａｌｌｕｒｅ　ａｘｅｌ　＾,173583,,,33.2798588,131.4991951,大分県別府市田の湯町12-25,011-827-8018
別府駅前　ホテルはやし,9242,,,33.27959706,131.5015376,大分県別府市駅前本町3-5,0977-24-2211
別府温泉　別府ステーションホテル,9243,,,33.27913878,131.5013959,大分県別府市駅前町13-4,0977-24-5252
別府八湯　御宿　野乃別府（ドーミーイン・御宿野乃　ホテルズグループ）,188238,,,33.2795021,131.5015672,大分県別府市駅前本町2-6,0977-21-5489
アパホテル〈別府駅前〉（全室禁煙）,183506,,,33.27892023,131.4993618,大分県別府市田の湯町10番6号,0977-76-5700
天然温泉　鉄輪の湯　スーパーホテル別府駅前,180258,,,33.2790994,131.5016308,大分県別府市駅前町13-8,0977-73-9000
ＨＡＣＤＡＩ　＾,173904,,,33.28100285,131.5003595,大分県別府市野口元町2-4,011-827-8018
別府温泉　旅館　千成,28789,,,33.28110241,131.4996766,大分県別府市野口元町2-18,0977-21-1550
別府第一ホテル,9069,,,33.28115798,131.5007821,大分県別府市野口元町2-40,0977-24-6311
ＢＥＰＰＵ　ＲＯＪＩＵＲＡ　ＳＴＡＹ＆ＳＡＵＮＡ,153093,,,33.27874739,131.5017206,大分県別府市駅前町9-14,0977-25-0100
国際民宿　こかげ,129605,,,33.27883883,131.502182,大分県別府市駅前町8-9,0977-23-1753
Ｔａｂｉｓｔ　アネックス松美,28060,,,33.27809163,131.499149,大分県別府市田の湯町7-28,0977-25-5822
別府温泉　自家源泉かけ流しの宿　新ほり井,84758,,,33.27844991,131.4985046,大分県別府市田の湯町8-27,0977-25-6530
アマネク別府ゆらり,182800,,,33.2803116,131.5026268,大分県別府市駅前本町6-35,0977-76-5566
ホテルアーサー　ＫＩＴＡＨＡＭＡ　ＢＡＳＥ,674,,,33.27884717,131.5025209,大分県別府市北浜1-2-5　　,0977-25-2611
アマネクイン別府,182799,,,33.2803991,131.5027244,大分県別府市駅前本町6-28,0977-76-5565
ＨＯＴＥＬ　ＡＺ　大分別府駅前店,167883,,,33.27756731,131.4994955,大分県別府市中央町6-2,0977-27-3333
グランドベース別府駅,178620,,,33.2820035,131.5012443,大分県別府市野口元町8-25,092-292-2431
Ｎ．Ｃａｆｅ,178887,,,33.2784161,131.5028221,大分県別府市北浜1-1-10　ＫＴ北浜ビル201,070-2388-5000
グランドベース別府駅前,176593,,,33.2781772,131.4978614,大分県別府市田の湯町8-7-1,092-292-2431
グランドベース　イオラニ,177737,,,33.2822951,131.4996192,大分県別府市野口元町4-8,092-292-2431
【Ｔｒｉａｎｇｌｅ】別府駅近くの貸切戸建！少人数グループでの観光におすすめ！／民泊,185058,,,33.2824645,131.4998731,大分県別府市野口元町4-1　Ｔｒｉａｎｇｌｅ,011-374-4638
ＢＥＰＰＵ　Ｓａｋｅ＆Ｓｔａｙ　ＹＯＴＴＥ／民泊,186170,,,33.2778156,131.5027795,大分県別府市北浜1-1-1号　ＹＯＴＴＥ,011-827-8018
Ａｂｕｒａｙａ　Ｂｅｔｔｅｉ　＾,170698,,,33.2825506,131.5002152,大分県別府市野口元町6-3　油屋別邸,011-827-8018
ＢＥＰＰＵ　Ｒｉｓａｎａ,196492,,,33.277481,131.4981433,大分県別府市田の湯町2-23,050-1720-7129
Ｊ－ＳＴＡＹ　別府　インディゴ,181838,,,33.28256181,131.4999301,大分県別府市野口元町4-14,050-1720-7129
ＢＥＰＰＵ　和　ーｎａｇｏｍｉー,192750,,,33.2825085,131.5013085,大分県別府市野口元町9-6,050-1720-7129
Ｃｏｍｆｏｒｔ　ＣＵＢＥ　ＰＨＯＥＮＩＸ　Ｂｅｐｐｕ,167652,,,33.27810051,131.5032767,大分県別府市北浜1-1-20,080-4690-5110
ゲストハウス　団欒,142543,,,33.281803,131.502848,大分県別府市駅前本町10-25,0977-75-8100
Ｔａｂｉｓｔ　アークイン松美,31521,,,33.2790713,131.5038259,大分県別府市北浜1-3-11,0977-24-0020
ＢＡＴＨ　Ｂ　＾,173740,,,33.28276827,131.4998471,大分県別府市野口元町6-3,011-827-8018
もみじの宿別府,197324,,,33.2772316,131.4979815,大分県別府市田の湯町3-2,080-9998-0460
ＢＡＴＨ　Ａ　＾,173891,,,33.28287324,131.4998979,大分県別府市野口元町6-3,011-827-8018
カームハウス別府元町,171995,,,33.2777603,131.5035414,大分県別府市元町4-2,080-3228-4946
亀の井ホテル　別府,4807,,,33.27639184,131.4996462,大分県別府市中央町5-17,0977-22-3301
Ｔｒｉａｎｇｌｅ　２ｎｄ,198300,,,33.27723435,131.503339,大分県別府市元町2-18,011-374-4638
Ｃｌｏｖｅｒ　ｒｏｏｍｓ　４０６　＾,173581,,,33.27987506,131.5045912,大分県別府市北浜2-7-31万代屋ビル,011-827-8018
別府温泉　くつろぎの温泉宿　山田別荘,80583,,,33.2820135,131.5036401,大分県別府市北浜3-2-18,0977-24-2121
Ｌｉｎｄｅｎ　Ｈａｕｓ　ＢＥＰＰＵ　＾,174735,,,33.27748104,131.5038152,大分県別府市元町5-7,011-827-8018
ホテル二灯,198051,,,33.2787873,131.5045699,大分県別府市北浜1-10-1,050-1722-2149
Ｌｉｖｉｎｇ　ＣＵＢＥ　Ｂｅｐｐｕ　Ｓｔａｔｉｏｎ　＾,173818,,,33.2834551,131.5006543,大分県別府市野口元町1076-5,011-827-8018
Ｌｉｖｉｎｇ　ＣＵＢＥ　Ｂｅｐｐｕ　Ｓｔａｔｉｏｎ　Ａｎｎｅｘ　＾,173892,,,33.2834551,131.5006543,大分県別府市野口元町1753-1 ,011-827-8018
別府の湯　空　＾,168880,,,33.2818839,131.5039759,大分県別府市北浜3－2－17　ＢＥＰＰＵ　ＮＯ　ＹＵ　ＳＯＲＡ,080-8954-8705
別府の湯　月　＾,168879,,,33.28189636,131.5039747,大分県別府市北浜3－2－16　ＢＥＰＰＵ　ＮＯ　ＹＵ　ＴＳＵＫＩ,080-8954-8705
温泉宿はまゆう凪,68689,,,33.28239401,131.5035457,大分県別府市北浜3-3-10,0977-23-3939
別府の湯　紗羅　＾,168878,,,33.28197658,131.5039759,大分県別府市北浜3－2－15　ＢＥＰＰＵ　ＮＯ　ＹＵ　ＳＡＲＡ,080-8954-8705
別府温泉　カプセルホテル　グロリア,135517,,,33.27665021,131.5031931,大分県別府市元町1-25,0977-27-1126
別府温泉　竹と椿のお宿　花べっぷ,30691,,,33.28027055,131.4956439,大分県別府市上田の湯町16-50,0977-22-0049
ウリハウス,177526,,,33.2790473,131.5052046,大分県別府市北浜1-9-12　横丁ビル201号、202号,080-9104-5529
ＢＥＰＰＵ　乃音,196285,,,33.2821622,131.5043517,大分県別府市北浜3-5-6,050-1720-7129
グランドベース別府,177566,,,33.27645671,131.4969209,大分県別府市上田の湯町1-31,092-292-2431
Ｏｇｕ　ｈｏｕｓｅ　Ｂｅｐｐｕ／民泊,185063,,,33.2773475,131.5049032,大分県別府市元町8-13　Ｏｇｕ　ｈｏｕｓｅ　Ｂｅｐｐｕ,011-374-4638
ＢＥＰＰＵ　ｈｏｓｔｅｌ＆ｃａｆｅ　Ｏｕｒｓｃｈｅｓｔｒａ．　＾,173632,,,33.278153,131.5054389,大分県別府市北浜1-6-11 坂本ビル,090-1518-0373
別府温泉　ホテル三泉閣,196409,,,33.2816774,131.5053022,大分県別府市北浜3-6-23,0977-22-8888
別府温泉　割烹旅館もみや,29131,,,33.27692781,131.4956882,大分県別府市上田の湯町５－２２,0977-23-5121
ＢＥＰＰＵ　ＨＯＳＴＥＬ　Ｕ＆Ｔ,172638,,,33.28267013,131.5047327,大分県別府市南的ヶ浜町5-31,080-7986-4573
エコル別府,176555,,,33.2753807,131.502783,大分県別府市秋葉町6-31,092-292-2431
別府温泉　野上本館,683,,,33.27819453,131.5057567,大分県別府市北浜1-12-1,0977-22-1334
Ａｐａｒｔｍｅｎｔ　Ｈｏｔｅｌ　ＹＡＥＺＡＫＩ,198548,,,33.2830893,131.5044022,大分県別府市南的が浜町5-12,0977-75-6865
別府利休,177500,,,33.2759113,131.5040488,大分県別府市楠町6-6,092-292-2431
西鉄リゾートイン別府,16660,,,33.28038318,131.5063594,大分県別府市北浜2-10-4,0977-26-5151
カプセルホステル別府タワー,197367,,,33.2817713,131.5059174,大分県別府市北浜3-10-2　別府タワー3Ｆ,097-776-6820
別府温泉　ホテルニューツルタ,1938,,,33.27862782,131.5063372,大分県別府市北浜1-14-15,0977-22-1110
三和泉　紅・碧,192313,,,33.2759126,131.5045602,大分県別府市楠町6,011-374-4638
カームハウス別府北浜,178535,,,33.27825906,131.5062771,大分県別府市北浜1-14-1,080-3228-4946
グランドベース別府駅東,178954,,,33.2841568,131.5035255,大分県別府市北的ヶ浜町4-21,092-292-2431
別府温泉　ホテル白菊,12660,,,33.28010797,131.4940688,大分県別府市上田の湯町16-36,0977-21-2111
別府温泉　ゆわいの宿　中屋,196619,,,33.2817716,131.5061093,大分県別府市北浜3-10-26,097-785-8118
喜可久旅館　別府,172940,,,33.27550041,131.5041395,大分県別府市楠町7-9,0977-22-1651
ＰｒｉｍｅＲｏｏｍ別府　ＴＡＴＡＭＩｓｕｉｔｅ,187086,,,33.27558207,131.4962824,大分県別府市光町21-23,03-5656-8526
別府温泉　ホテル　エール,30130,,,33.27952773,131.5068232,大分県別府市北浜2丁目14-35,0977-21-7272
ホテルなぎさ,29252,,,33.28185801,131.5063065,大分県別府市北浜3-10-10,0977-23-8101
別府温泉　ホテル好楽,4765,,,33.28076648,131.5067399,大分県別府市北浜3-13-21,0977-22-1331
別府温泉　悠彩の宿　望海,54697,,,33.28245516,131.5062538,大分県別府市北浜3-8-7,0977-22-1241
Ｔａｂｉｓｔ　別府北浜の宿　碧桜,177818,,,33.2804835,131.5070728,大分県別府市北浜2-11-18,975296600
ゲストハウスサンライン別府,168301,,,33.2801011,131.5071375,大分県別府市北浜2-12-9,0977-26-1155
別府温泉　別府のお宿加賀屋,148997,,,33.28129134,131.5069144,大分県別府市北浜3-12-14,0977-75-7224
松亀荘,187961,,,33.27978367,131.507283,大分県別府市北浜2-12-21,080-5256-3862
別府温泉　天空湯房　清海荘,28628,,,33.28089425,131.5072704,大分県別府市北浜3丁目14-3,0977-22-0275
大江戸温泉物語　別府清風,158807,,,33.2800372,131.5074403,大分県別府市北浜2-12-21,050-3615-3456
Ｓｈａｒｅ　Ｈｏｔｅｌ　１９８　Ｂｅｐｐｕ,180001,,,33.2739428,131.4982385,大分県別府市光町7-26,050-3627-5198
海乃ホテル　はじめ,16101,,,33.2815797,131.5072282,大分県別府市北浜3-14-8,0977-23-2201
別府温泉　シーサイドホテル　美松　大江亭,5120,,,33.28235519,131.5069481,大分県別府市北浜3-14-17,0977-23-4301
別府　豊泉荘,160966,,,33.2771709,131.4933886,大分県別府市青山町5-73,0977-23-4281
ゲストハウスＡＫＩＢＡ,189075,,,33.2754683,131.5064154,大分県別府市楠町14-24,080-8371-9665
ＭＵＲＥ　Ｂｅｐｐｕ,184851,,,33.2756582,131.5067083,大分県別府市楠町19-15,0977-23-3377
別府温泉　匠晴の宿　心庵,153304,,,33.28627933,131.5025232,大分県別府市弓ヶ浜町3-10,0977-75-8400
ＨＡＪＩＭＡＲＩ　Ｂｅｐｐｕ,188436,,,33.274971,131.5062982,大分県別府市千代町5-1,0977-76-7667
ゲストハウス　茶吉,182117,,,33.2729822,131.4967529,大分県別府市朝見2-4-4,0977-23-5808
ＰｒｉｍｅＲｏｏｍ別府　ＳＡＫＵＲＡ,187085,,,33.2722334,131.500566,大分県別府市立田町6-12,03-5656-8526
ＰｒｉｍｅＲｏｏｍ別府　Ｓｕｉｔｅ,184843,,,33.2724038,131.4960645,大分県別府市朝見2-7-17,03-5656-8526
ＰｒｉｍｅＲｏｏｍ別府　朝見,184846,,,33.2723721,131.4961427,大分県別府市朝見2-7-6,03-5656-8526
グッドイン別府,68116,,,33.27365064,131.5076816,大分県別府市浜町10,0977-22-3001
ＰｒｉｍｅＲｏｏｍ別府　Ｒｏｏｔ,184842,,,33.272337,131.5071951,大分県別府市浜町19-1,03-5656-8526
ＰｒｉｍｅＲｏｏｍ別府　松,184845,,,33.2715404,131.506718,大分県別府市松原町10-14,03-5656-8526
貸別荘　さくら草,177775,,,33.2777302,131.4885994,大分県別府市原町9-21,090-8838-8965
ＰｒｉｍｅＲｏｏｍ別府　菊,184844,,,33.2710593,131.5068743,大分県別府市松原町17-9,03-5656-8526
別府温泉　新玉旅館,40679,,,33.27014269,131.506829,大分県別府市浜脇2丁目1-13,0977-22-8166
ＲＥＸ　ＨＯＴＥＬ　別府,168759,,,33.2904471,131.5042546,大分県別府市若草町13-21,0977-23-6111
アリュール別府,197312,,,33.26970444,131.5070019,大分県別府市浜脇2-3848-1,011-374-4638
ＢＥＰＰＵ　ＳＥＮＴＯ,197420,,,33.2915172,131.5024418,大分県別府市若草町10-10,092-409-4892
別府温泉　ホテル別府パストラル,18318,,,33.28969851,131.4922159,大分県別府市東荘園1-1-1,0977-23-4201
ＰｒｉｍｅＲｏｏｍ別府　浜脇温泉前,184848,,,33.2691338,131.5083291,大分県別府市浜脇1-10-20,03-5656-8526
浜脇の長屋,147453,,,33.26901379,131.5085887,大分県別府市浜脇1-3957-3,0977-22-3560
別府温泉　葉籠　－ｈａｋｏｍｏｒｉ－,182154,,,33.2744769,131.4862978,大分県別府市原町16-19,0977-76-5130
コンフォート　ロジング　山の手,196056,,,33.2830529,131.485098,大分県別府市山の手町14-22　山の手パークヒルズ201,090-9401-0827
ＰｒｉｍｅＲｏｏｍ別府　ＧＬＡＮＭＡＪＥＳＴＡ,184841,,,33.2690448,131.5095105,大分県別府市浜脇1-13-7,03-5656-8526
ＰｒｉｍｅＲｏｏｍ別府　浜脇,184847,,,33.2691062,131.5096276,大分県別府市浜脇1-12-12,03-5656-8526
別府温泉　べっぷ昭和園,49404,,,33.27380506,131.4857314,大分県別府市別府乙原3783-1,0977-22-3211
松亀ビルーシーサイドマンション,172579,,,33.2938022,131.5019576,大分県別府市餅ケ浜町5-31,8063840881
別府温泉　眺望の宿　しおり,38409,,,33.28213524,131.4800617,大分県別府市大字南立石2218番5,0977-22-9771
別府温泉　割烹旅館　ゆめさき,15144,,,33.2865304,131.4791838,大分県別府市鶴見園町5組1,0977-22-3008
ＨＯＴＥＬ　ＤＯ－ＹＡ　ＢＥＰＰＵ　離れ,188862,,,33.28705894,131.4788091,大分県別府市鶴見園町2145-81,092-409-4892
別府温泉　美湯の宿　両築別邸,108176,,,33.28153346,131.4767135,大分県別府市観海寺3,0977-26-0022
別府観海寺温泉　旅亭　松葉屋,72876,,,33.2817852,131.4758537,大分県別府市観海寺3　,0977-22-4271
別府温泉　杉乃井ホテル（オリックスホテルズ＆リゾーツ）,5547,,,33.28316282,131.4755315,大分県別府市観海寺1,0977-24-1141
Ｌｉｌｙ　Ｈｏｕｓｅ,198628,,,33.3009335,131.5006254,大分県別府市船小路町1-19,011-213-9830
ＨＯＴＥＬ　ＤＯ－ＹＡ　ＢＥＰＰＵ,196261,,,33.28587205,131.4759409,大分県別府市大字南立石字川原端2044-1,092-409-4892
ＨＯＴＥＬ　ＤＯ－ＹＡ　ＢＥＰＰＵ　別館,196034,,,33.28679935,131.4762791,大分県別府市南立石2145-210,092-409-4892
文の家,141028,,,33.29207377,131.4786805,大分県別府市荘園6-1,0977-25-5466
石垣泉,191606,,,33.3032808,131.4985645,大分県別府市石垣東9-2-13,011-374-4638
【コテージ風一軒家の温泉付き貸切別荘】　＾,175942,,,33.2864765,131.4731491,大分県別府市南立石八幡町4組　藤乃澤別荘,080-3375-5362
ココリエ別府,177111,,,33.30349112,131.5008836,大分県別府市汐見町1-29,092-292-2431
シンプルステイ別府,162710,,,33.304051,131.4954775,大分県別府市石垣東10-5-3,0977-22-1334
ＶＩＬＬＡ　水鏡の雫,197597,,,33.3036658,131.4929418,大分県別府市石垣西9-3-30,011-374-4638
ホテル　サンバリー　アネックス,8725,,,33.30530519,131.4986371,大分県別府市石垣東10-1-20,0977-26-6555
おやど　たぬ吉亭　露天風呂あり！　＾,186002,,,33.3003396,131.4767125,大分県別府市鶴見3-3,090-8624-8400
湯宿　風の音,198574,,,33.30458534,131.4700068,大分県別府市大字鶴見字竹ノ内2116-8,011-213-9830
湯宿　灯火,198575,,,33.30483384,131.4700069,大分県別府市大字鶴見竹ノ内2116-22,011-213-9830
グランシア別府鉄輪,196407,,,33.31152048,131.4616289,大分県別府市鶴見照湯1409-1,0977-77-2405
杜の湯リゾート,166998,,,33.3099142,131.4620844,大分県別府市小倉町64番45号(旧住所 別府市鶴見字照湯1413-13),0977-85-7000
ＡＮＡインターコンチネンタル別府リゾート＆スパ　ｂｙ　ＩＨＧ,172910,,,33.3181587,131.4608273,大分県別府市大字鉄輪499-18,0977-66-1000
漫厘　ＭＡＮＤＥＮ,192200,,,33.3145527,131.453677,大分県別府市鶴見1331-50,0977-76-5617
別府鉄輪温泉　和の宿　夢月（なごみのやど　むつき）,135400,,,33.30799584,131.4620737,大分県別府市小倉町40番8号,0977-27-2888
別府・鉄輪　神丘温泉　豊山荘,12700,,,33.30850138,131.4639679,大分県別府市小倉町30番22号,0977-21-8080
Ｖｉｌｌａ　Ｒｅｇａｌｏ　天然温泉付き５ＬＤＫ！／民泊,185068,,,33.30744969,131.4595573,大分県別府市鶴見小倉1665-144　Ｖｉｌｌａ　Ｒｅｇａｌｏ,011-374-4638
別府鉄輪温泉　おやど湯の丘,80587,,,33.30800975,131.463168,大分県別府市小倉4-1,0977-21-2414
リゾート扇山　〜Ｇｒａｎｄｐｉａ　Ｒｅｓｏｒｔ　ＯＵＧＩＹＡＭＡ〜,147745,,,33.30723712,131.4604827,大分県別府市小倉町44番6号,0977-24-3000
別府明礬温泉　御宿　ゑびす屋＜大分県＞,68509,,,33.31702521,131.4537047,大分県別府市明礬4組,0977-66-0338
別府明礬温泉　岡本屋旅館,78167,,,33.31764458,131.4538769,大分県別府市明礬4組,0977-66-3228
湯治リトリートプログラム型滞在「七日一巡り」,196777,,,33.3068076,131.4618293,大分県別府市小倉町26-13,050-1726-1126
別府明礬温泉　美容・美肌・健康　小宿　－ＹＡＭＡＤＡＹＡ－,144530,,,33.317778,131.453292,大分県別府市明礬3組,0977-66-0332
Ｂｅｐｐｕ　Ｏｈａｎａ　〜別府インターすぐのお宿〜　＾,195607,,,33.3062941,131.4619516,大分県別府市小倉町27-17号,090-5948-3681
灯りの宿　燈月,172768,,,33.313077,131.4688876,大分県別府市大字火売６組－２,0977-66-6633
別府　おぐら,72789,,,33.30599327,131.4608211,大分県別府市小倉町10番26号,0977-21-6123
ＴＡＫＥＴＯＲＩ　ＲＯＴＥＮ　〜竹取露天〜／民泊,185065,,,33.30641141,131.4634924,大分県別府市鶴見字タタラ1868-23　ＴＡＫＥＴＯＲＩ　ＲＯＴＥＮ,011-374-4638
別府ホテル塒,183268,,,33.3129711,131.4693213,大分県別府市火売765-5,050-1722-2149
旅館　若杉,80705,,,33.31771121,131.4520882,大分県別府市明礬一組   ,0977-66-0966
ＡＯ　ＮＯ　ＫＩＳＥＫＩ　奇跡の青い天然温泉☆貸し切り一軒家☆別府温泉／民泊,185059,,,33.3055607,131.4590661,大分県別府市鶴見字南野地1671-19　奇跡の青い天然温泉,011-374-4638
ＨＡＫＵＤＡＫＵ　ＮＯ　ＹＵＹＡ／民泊,185064,,,33.30514599,131.4587389,大分県別府市鶴見字南野地1671-33　ＨＡＫＵＤＡＫＵ　ＮＯ　ＹＵＹＡ,011-374-4638
別府鉄輪温泉　山荘　神和苑,158425,,,33.31632227,131.4711918,大分県別府市鉄輪345,0977-66-2111
別館　うみね,187531,,,33.31934973,131.4703967,大分県別府市大字鉄輪字山ノ上580-1,050-5799-8508
ＴＡＫＥＮＯＹＡＤＯ　ＢＥＰＰＵ,197725,,,33.31154717,131.4727904,大分県別府市火売５－１,011-374-4638
別府最大級の露天風呂の宿　おにやまホテル,5543,,,33.31477306,131.473153,大分県別府市鉄輪335-1,0977-66-1121
別府鉄輪温泉　割烹旅館　かんな和別邸,136033,,,33.31377596,131.4736058,大分県別府市火売1組,0977-27-7880
別府鉄輪温泉　旅館　喜楽＜大分県＞,70231,,,33.3160184,131.4742043,大分県別府市御幸4,0977-66-1585
別府鉄輪温泉　ホテル山水館,107764,,,33.3137871,131.474764,大分県別府市鶴見628-1,0977-66-3211
別府湯けむりの丘ユースホステル,80702,,,33.31697839,131.474289,大分県別府市御幸7組,0977-77-1792
鉄輪温泉　かんなわ　ゆの香（レトロ館）,163057,,,33.3167858,131.4746736,大分県別府市御幸四組,0977-67-2682
湯けむりの宿　ほの香,160771,,,33.3115364,131.4750319,大分県別府市火売3,0977-66-3231
湯けむりの宿　別府はなみずき,134745,,,33.31545081,131.4752112,大分県別府市御幸２組,0977-66-6969
別府温泉　スパホテルつるみ,188252,,,33.31312577,131.475452,大分県別府市大字鶴見242-1,0977-66-0561
鉄輪温泉　かんなわ　ゆの香,70732,,,33.31638681,131.4750806,大分県別府市御幸4組,0977-67-2682
別府温泉と寺の宿　瑞光寺大谷会館,15320,,,33.3147416,131.4755791,大分県別府市御幸3組,0977-66-0325
鉄輪温泉　絶景の宿　さくら亭,41837,,,33.3185449,131.4751694,大分県別府市鉄輪上1063-1,0977-27-6747
別府旅館　湯元美吉,109392,,,33.31710063,131.4758527,大分県別府市鉄輪上6組,0977-66-0328
別府　鉄輪温泉　萬力屋別館　ＭＡＮＲＩＫＩＹＡＢＥＫＫＡＮ,191571,,,33.3146592,131.4767386,大分県別府市鉄輪字風呂本234,0977-66-3345
癒しの宿　彩葉,136161,,,33.31734228,131.4764332,大分県別府市鉄輪上6組,0977-67-1680
鉄輪温泉　八葉,183153,,,33.31679957,131.4767082,大分県別府市鉄輪上5組,0977-27-8484
千客の旅情犒ふ　萬力屋,192608,,,33.3152218,131.477208,大分県別府市風呂本6組,0977-66-1372
筑新,106140,,,33.31585358,131.4771499,大分県別府市風呂本1組,0977-66-1358
Ｖｉｌｌａ．ｗＲｗ,198514,,,33.3180609,131.4765214,大分県別府市鉄輪1033-3,011-374-4638
別府鉄輪温泉　やすらぎのある宿　旅館　さくら屋,78218,,,33.31499257,131.4774415,大分県別府市鉄輪229-2（風呂本3組）,0977-66-2328
源泉湯元の宿　旅館　国東荘,30664,,,33.315138,131.4777004,大分県別府市鉄輪風呂本３組,0977-66-0241
鉄輪温泉　湯けむりの里　東屋,41836,,,33.31812554,131.4770193,大分県別府市鉄輪上1029-1,0977-27-7547
五養宿　辰巳屋旅館,137775,,,33.31599246,131.4777804,大分県別府市鉄輪222,0977-66-0309
大江戸温泉物語Ｐｒｅｍｉｕｍ　ホテル風月,7297,,,33.31409546,131.4781609,大分県別府市北中1組,050-3615-3456
ととのいの宿　春燈庵,184774,,,33.29830818,131.4632881,大分県別府市扇山３丁目24番6号,0977-76-5265
湯煙ただよう和の宿　しんきや旅館,142732,,,33.31542677,131.4783961,大分県別府市風呂本2組,0977-66-0962
ひろみや,173113,,,33.31629732,131.4782393,大分県別府市井田4組,0977-66-0628
鉄輪温泉　冨士屋ホテル（Ｆｕｊｉｙａ　Ｈｏｔｅｌ）,197315,,,33.3169743,131.4781967,大分県別府市大字鉄輪735,0977-66-3251
入湯貸間　陽光荘,136978,,,33.31569529,131.4785303,大分県別府市井田3組,0977-66-0440
Ｔａｂｉｓｔ　日生や　別府鉄輪,147186,,,33.31525448,131.4787254,大分県別府市鉄輪字風呂ノ本１６５,0977-67-6677
ふるさとの宿　みかさや,15172,,,33.31683405,131.478733,大分県別府市井田1組,0977-66-0438
旅館　たまの荘,137778,,,33.31555087,131.4790081,大分県別府市鉄輪東６組,0977-66-0717
別府鉄輪温泉　かんなわ荘,137784,,,33.31619801,131.4788997,大分県別府市井田2組,0977-66-5811
別府温泉　入舟荘,68090,,,33.31646743,131.4788775,大分県別府市井田1組,0977-66-0655
二彩乃湯宿　アサヒヤ,80406,,,33.31631424,131.4789757,大分県別府市鉄輪井田1組,0977-66-0237
別府鉄輪温泉　旅館　みゆき屋,30969,,,33.3156781,131.4795187,大分県別府市鉄輪東6組,0977-66-0360
Ｓａｔｏｒｉｅ　Ｂｅｐｐｕ　＾,189944,,,33.3157547,131.4799252,大分県別府市鉄輪東850-9　Ｓａｔｏｒｉｅ　Ｂｅｐｐｕ,092-235-5666
日本旅館　器　別府鉄輪,166919,,,33.3157082,131.4799787,大分県別府市鉄輪東4組-2,0977-85-7782
別府　鉄輪温泉　湯の里　葉山,64301,,,33.31234015,131.4806441,大分県別府市鶴見122-5,0977-66-1245
別府　竹風,198007,,,33.3167435,131.4803791,大分県別府市大字鉄輪802-9,097-511-6203
別府鉄輪温泉　やすらぎの宿　由布,72895,,,33.31579255,131.4810079,大分県別府市鉄輪東4組2,0977-66-8536
ＳＥＫＩＹＡ　ＲＥＳＯＲＴ　別邸はる樹,74798,,,33.30891833,131.4809692,大分県別府市新別府町32番21号,0977-24-8456
別府温泉　リゾートステイＳＰＡ　ＴＳＵＲＵＭＩ,191850,,,33.29518616,131.4613534,大分県別府市扇山23組,080-9335-9061
大吉旅館　峡,197747,,,33.317708,131.4814529,大分県別府市鉄輪796-12,0977-28-0366
ＢＥＰＰＵ　ＲＩＮ,198006,,,33.3144315,131.4822226,大分県別府市鉄輪35-10,097-511-6203
別府　三和泉　響・雅・桜,197189,,,33.31385877,131.4827663,大分県別府市大字鉄輪字鹿ノ首26-69,011-374-4638
ゆけむりの宿　小町荘,197793,,,33.31082268,131.4834929,大分県別府市大字鶴見54-6,011-374-4638
別府観光ホテルエース,189223,,,33.2920821,131.4605152,大分県別府市堀田町28-23,0977-76-8899
別府風雅,180427,,,33.2912275,131.4611451,大分県別府市堀田町11-69,0570-018-766
別邸安／民泊,189694,,,33.31223378,131.4870501,大分県別府市上平田町1732-11　別邸安,092-409-5247
別府旅宿　最乃幸,108228,,,33.29100242,131.4563123,大分県別府市堀田町20番57号,0977-23-2400
別府温泉　リゾーピア別府,106160,,,33.29054503,131.461377,大分県別府市堀田町11番43号,0977-25-2161
別府鉄輪温泉　徳の宿　ふぶ庵,107891,,,33.30871571,131.4880491,大分県別府市春木町14番20号,0977-75-8950
ＳＥＫＩＹＡ　ＲＥＳＯＲＴ　テラス御堂原,151164,,,33.28740974,131.4596484,大分県別府市堀田町5番57号,0977-85-8872
別府温泉　和モダン湯宿　ゆとりろ別府,108141,,,33.32986046,131.4844294,大分県別府市大字野田22,0570-085-399
別府温泉　わんこの宿　ゆるり,136026,,,33.32991323,131.4845266,大分県別府市野田114-1,0570-085-399
ＳＥＫＩＹＡ　ＲＥＳＯＲＴ　ＧＡＬＬＥＲＩＡ　ＭＩＤＯＢＡＲＵ,183136,,,33.2871452,131.4610185,大分県別府市堀田町5番57号,0977-76-5303
Ｂｅｐ　Ｏｎｅ／民泊,185066,,,33.33722749,131.4871219,大分県別府市スパランド豊海Ｋ24　Ｂｅｐ　Ｏｎｅ,011-374-4638
そよかぜハウス００６　【天然温泉付きの一棟貸切】　ペットＯＫ　駐車場２台有　最大１０名　＾,190843,,,33.3090778,131.4984815,大分県別府市北石垣1124-17　そよかぜ,050-1180-4542
Ｂｅｐｐｕ　Ｈｅｒｉｔａｇｅ　４Ａ　　オーシャンビューで南国気分！／民泊,185823,,,33.30816468,131.5009391,大分県別府市中須賀東町10組の1　エリタージュ21,011-827-8018
別府城島温泉　城島高原ホテル,7084,,,33.26253918,131.4251338,大分県別府市城島高原123番地,0977-22-1162
由布露天　時のまにまに　＾,176224,,,33.2618436,131.3546676,大分県由布市湯布院町川北26－3　ＹＵＨＵＲＯＴＥＮ　ＴＯＫＩ　ＮＯ　ＭＡＮＩＭＡＮＩ,090-4984-7350
ＥＴＡＶＩＡ　湯布院駅前,172663,,,33.26256058,131.3555476,大分県由布市湯布院町川北6-6,0977-85-7188
ＹＵＦＵ－ＩＮＮ　藤・松　＾,195767,,,33.262336,131.3562123,大分県由布市湯布院町川上3732-1,080-1774-0297
由布院駅徒歩２分！新築、露天風呂付き＊貸切一軒家　＾,169330,,,33.2624881,131.3561422,大分県由布市湯布院町川上3732-1　ＹＵＦＵ-ＩＮＮ　-　ＭＡＴＳＵ　ＳＵＩＴＥ,070-4476-4873
湯布院　宙　＾,194136,,,33.26115071,131.356218,大分県由布市湯布院町川上3729-1　湯布院　宙,090-4984-7350
由布院温泉　由布院ことぶき　花の庄,20591,,,33.26176571,131.3565927,大分県由布市湯布院町川上2900-5,0977-84-2161
湯布院　京庵　＾,176254,,,33.26249158,131.356394,大分県由布市湯布院町川上3728-5　ＹＵＦＵＩＮ　ＫＹＯＡＮ,090-4984-7350
和モダン温泉館　湯布院あかりの宿,179191,,,33.2618973,131.3568727,大分県由布市湯布院町川上2915-15,0977-85-2800
ＧＥＭＳ　ＹＵＦＵＩＮ,188341,,,33.2633069,131.3559332,大分県由布市湯布院町川北2-11,0977-84-7311
旅の宿　花景色　＾,170440,,,33.2636821,131.357168,大分県由布市湯布院町川上2937-1　旅の宿　花景色,090-4984-7350
華梓　＾,176134,,,33.2635205,131.3573861,大分県由布市湯布院町川上2937－12　Ｈａｎａ　Ａｚｕｓａ,080-8954-8705
かわもと別邸ｇａｒｄｅｎ,193572,,,33.2592041,131.3543898,大分県由布市湯布院町川南42-1,092-980-4595
由布院温泉　ペンション　ゆふいん,38971,,,33.2597676,131.3573686,大分県由布市湯布院町川南138-1,0977-85-3311
由布の湯　楽　＾,190056,,,33.2625081,131.3584469,大分県由布市湯布院町川上2967-9　由布の湯　楽,080-8954-8705
由布院　六花,167953,,,33.26239002,131.3516849,大分県由布市湯布院町川上3612-2,0977-76-8460
由布院温泉　旅館　百合,68576,,,33.26207683,131.358662,大分県由布市湯布院町川上2968-10,0977-84-3128
由布院温泉　ゆふいん山水館,1678,,,33.25901047,131.3566289,大分県由布市湯布院町大字川南108-1,0977-84-2101
由布院温泉　別荘　ふるさと,30752,,,33.25874934,131.3544235,大分県由布市湯布院町川南89-2,0977-84-2777
かわもと９２６別邸,181843,,,33.2587024,131.3553751,大分県由布市湯布院町川南92-6,092-980-4595
Ｋａｍｏｎ,192841,,,33.2640838,131.3578851,大分県由布市湯布院町川上2941-1,097-547-8726
湯めぐりの館　吉野桜　Ｙｕｍｅｇｕｒｉ－ｎｏ－ｙａｋａｔａ　Ｙｏｓｈｉｎｏｚａｋｕｒａ　＾,171799,,,33.26499311,131.3541483,大分県由布市湯布院町川上3645-1　Ｙｕｍｅｇｕｒｉ　ｎｏ　ｙａｋａｔａ　Ｙｏｓｈｉｎｏｚａｋｕｒａ,090-4984-7350
由布院温泉　湯布院旅館のぎく,153349,,,33.260237,131.3586297,大分県由布市湯布院町川上2879-1,0977-85-3372
高のや　月　＾,169266,,,33.25855542,131.3537832,大分県由布市湯布院町川南字白田87-4、87-9　Ｔａｋａｎｏｙａ　Ｔｓｕｋｉ,080-1774-0297
高のや　雲　＾,169020,,,33.25853989,131.3538001,大分県由布市湯布院町川南字白田87－4、87－12　Ｔａｋａｎｏｙａ　Ｋｕｍｏ,080-1774-0297
木蓮の花　＾,176103,,,33.26468033,131.3573442,大分県由布市湯布院町川上字野田3055-1　ＳＨＡＫＵＮＡＧＥ－ＢＥＫＫＡＮ,090-4984-7350
高のや　星　＾,169018,,,33.25852032,131.3538021,大分県由布市湯布院町川南字白田87-4、87-12　Ｔａｋａｎｏｙａ　Ｈｏｓｈｉ,080-1774-0297
翠田の宿　＾,190878,,,33.260865,131.3590824,大分県由布市湯布院町川上2891-4　翠田の宿,090-4984-7350
由布院温泉　御宿　陣の内,51691,,,33.25847441,131.3562595,大分県由布市湯布院町川南107-1,0977-84-3221
石楠花　本館　＾,176101,,,33.26474448,131.3574153,大分県由布市湯布院町川上字野田3055-1　Ｓｈａｋｕｎａｇｅ,090-4984-7350
由布院　オッポ,188848,,,33.265093,131.353593,大分県由布市湯布院町川上3625-7,090-3144-5220
湯布院旅館　おかえり,31793,,,33.2583871,131.3564854,大分県由布市湯布院町川南103-5,0977-76-6288
Ａｓｓｉの家,167182,,,33.2653228,131.353741,大分県由布市湯布院町川上3641-2,0977-85-7688
由布院温泉　旅想　ゆふいん　やまだ屋,54128,,,33.26189076,131.3598119,大分県由布市湯布院町川上2855-1,0977-85-3185
由布院倶楽部,184560,,,33.2644895,131.3585715,大分県由布市湯布院町川上2952-1,0977-28-2600
ＷＥＳＴ　ｉｎ,179026,,,33.26551476,131.3567436,大分県由布市湯布院町川上3077-1,080-5333-1200
由布院温泉　８Ａ１（やえいち）,198577,,,33.2579525,131.3537401,大分県由布市湯布院町川南67-2,0977-75-7119
由布院温泉　シティホテルビッグベアー,7906,,,33.26493204,131.3581064,大分県由布市湯布院町川上3049-1,0977-84-5300
【せせらぎ庵】　＾,168858,,,33.26340441,131.3505667,大分県由布市湯布院町川上字宮園前3602－10　ＹＵＦＵＩＮ　ＳＥＳＥＲＡＧＩＡＮ,080-1774-0297
和モダンな温泉旅館　湯布院らんぷの宿,166507,,,33.2657673,131.3536327,大分県由布市湯布院町川上3639-1,0977-76-8611
山の翠　Ｄ　和心（わしん）２０２５年４月新築オープン　＾,194390,,,33.26313036,131.350207,大分県由布市湯布院町川上3797-5　山の翠　Ｄ　（和心）,090-4984-7350
山の翠　Ｃ　山水（さんすい）２０２５年４月新築オープン　＾,194389,,,33.26313372,131.3501977,大分県由布市湯布院町川上3797-5　山の翠　Ｃ　（山水）,090-4984-7350
山の翠　Ｅ　水音（すいおん）　２０２５年４月新築オープン　＾,194396,,,33.2631169,131.3501842,大分県由布市湯布院町川上3797-5　山の翠Ｅ（水音）,090-4984-7350
山の翠　Ｂ　清風（せいふ）２０２５年４月新築オープン　＾,194388,,,33.26313036,131.3501869,大分県由布市湯布院町川上3797-5　山の翠　Ｂ　（清風）,090-4984-7350
山の翠　Ｆ　由布（ゆふ）　２０２５年４月新築オープン　＾,194397,,,33.26312811,131.3501695,大分県由布市湯布院町川上3797-5　山の翠　由布,090-4984-7350
山の翠　Ａ　夕月（ゆうげつ）２０２５年４月新築オープン　＾,194387,,,33.26312699,131.3501534,大分県由布市湯布院町川上3797-5　山の翠　Ａ　（夕月）,090-4984-7350
竹屋,184580,,,33.2653011,131.352007,大分県由布市湯布院町川上3515-5,0977-84-7131
由布の湯　永来　＾,168877,,,33.2633338,131.350187,大分県由布市湯布院町川上3602－11　ＹＵＦＵ　ＮＯ　ＹＵ　ＴＯＫＩ,080-1774-0297
由布院温泉　お宿　有楽,104780,,,33.2610492,131.3603868,大分県由布市湯布院町川上2868-5,0977-28-2700
由布の湯　四季　＾,176129,,,33.25747684,131.3535936,大分県由布市湯布院町川南76-6　Ｙｕｆｕ－ｎｏ－ｙｕ　Ｓｈｉｋｉ,080-8954-8705
由布の湯　癒　＾,176130,,,33.2574352,131.3536349,大分県由布市湯布院町川南76-6　Ｙｕｆｕ－ｎｏ－ｙｕ　Ｉｙａｓｈｉ,080-8954-8705
由布院いよとみ,27922,,,33.25751697,131.3568893,大分県由布市湯布院町川南848番地,0977-84-2007
由布院温泉　蓮輪ＩＮＮ,76390,,,33.25728565,131.3560345,大分県由布市湯布院町川南837-8,0977-85-5199
由布の里　旅荘　牧場の家,108557,,,33.26072979,131.3604924,大分県由布市湯布院町川上2870-1,0977-84-2138
ＭＯＮＯＭＩＮＡ　Ｖａｃａｔｉｏｎ　Ｖｉｌｌａ　＾,191211,,,33.25735974,131.3533851,大分県由布市湯布院町川南76-8　ＭＯＮＯＭＩＮＡ　Ｖａｃａｔｉｏｎ　Ｖｉｌｌａ,0977-84-5050
神秘の川　清白　＾,191210,,,33.2573418,131.3533851,大分県由布市湯布院町川南76-2　神秘の川　清白,090-4984-7350
由布院　山ぼうし,134903,,,33.26538201,131.3587563,大分県由布市湯布院町川上3045-5,0977-84-2108
由布院温泉　旅館たつみ,16073,,,33.26559864,131.3585591,大分県由布市湯布院町川上3060-8,0977-84-3175
由布院　つるのゆ,67975,,,33.26493763,131.3595007,大分県由布市湯布院町川上2986-5,0977-85-2811
由布院温泉　山荘　田名加,20454,,,33.25826616,131.3590593,大分県由布市湯布院町川南286-1,0977-85-4500
ＡＭＢＥＲ　Ｙｕｆｕｉｎ,193528,,,33.2571718,131.3568051,大分県由布市湯布院町川南839-12,0977-75-9238
由布院温泉　旅館　しらたき,161008,,,33.2653311,131.3595683,大分県由布市湯布院町川上2987-2,0977-84-2360
湯布の雫〜暁〜　＾,191152,,,33.26697562,131.3555736,大分県由布市湯布院町川上3673-2　由布の雫～朝霧・夕凪・暁～,0977-84-5050
湯布の雫　朝霧　＾,191150,,,33.26699244,131.3555602,大分県由布市湯布院町川上3673-2　由布の雫～朝霧・夕凪・暁～,0977-84-5050
湯布の雫〜夕凪〜　＾,191151,,,33.26699244,131.355587,大分県由布市湯布院町川上3673-2　由布の雫～朝霧・夕凪・暁～,0977-84-5050
ゆふいんフローラハウス,136192,,,33.25738555,131.3515294,大分県由布市湯布院町川南71-1,0977-84-2718
宇都宮　＾,190382,,,33.26721336,131.3552226,大分県由布市湯布院町川上3677-1　宇都宮,090-4984-7350
湯布院　小さな貸別荘　ラスタグラス,158442,,,33.2568177,131.3579381,大分県由布市湯布院町川南305-11,090-8392-9822
由布院温泉　旅館　はちすの糸,181856,,,33.2665641,131.3517448,大分県由布市湯布院町川上3535-5,0977-85-3535
由布院温泉　由布の小部屋,17935,,,33.26289623,131.3616033,大分県由布市湯布院町川上2782-7,0977-84-3267
湯布院　恵の里　＾,168884,,,33.2630917,131.3616776,大分県由布市湯布院町川上2778－3　ＹＵＦＵＩＮ　ＭＥＧＵＭＩ　ＮＯ　ＳＡＴＯ,090-4984-7350
湯布院　縁庵　＾,168883,,,33.2630351,131.3616944,大分県由布市湯布院町川上2778－4　ＹＵＦＵＩＮ　ＹＵＫＡＲＩ　ＡＮ,090-4984-7350
岳見の宿　＾,191191,,,33.2564959,131.3584304,大分県由布市湯布院町川南336-8　岳見の宿,03-6823-8830
お宿　柚木温泉　＾,170248,,,33.2659346,131.3498556,大分県由布市湯布院町川上3498-1・3498-6　ＯＹＡＤＯ　ＹＵＫＩ　ＯＮＳＥＮ,080-7423-8614
湯布院　お宿　柚木温泉,184820,,,33.2659328,131.349842,大分県由布市湯布院町川上3498-1・3498-6,080-7625-0379
旅館やまなみ,198752,,,33.267509,131.352551,大分県由布市湯布院町川上3549-2,0977-85-3711
かわもと別邸３４６６,183025,,,33.2557126,131.3555709,大分県由布市湯布院町川南346-6,092-980-4595
Ｃｏｍｉｎｋａ　Ｙｕｆｕｉｎ,182698,,,33.2603348,131.3479376,大分県由布市湯布院町川北383‐2,0977-75-9238
由布院温泉　お宿　五輪花,31742,,,33.26344868,131.3479657,大分県由布市湯布院町川北177,0977-85-3435
ＣＯＭＩＣＯ　ＡＲＴ　ＨＯＵＳＥ　ＹＵＦＵＩＮ,196088,,,33.2652947,131.3613162,大分県由布市湯布院町川上2995-1,0977-76-8166
由布院温泉　湯らり　六妙,108574,,,33.26726791,131.3590062,大分県由布市湯布院町川上3090-1,0977-85-2200
由布院温泉　山紫御泊処　はなの舞,72856,,,33.26412389,131.3624588,大分県由布市湯布院町川上2755-2,0977-84-5700
由布院温泉　ゆふいんホテル秀峰館,28141,,,33.2599577,131.3627005,大分県由布市湯布院町川上2415-2,0977-84-5111
源泉掛け流しの離れ宿　由布院別邸　風の森,54134,,,33.25555533,131.3577317,大分県由布市湯布院町川南371-1,0977-84-2510
ゆふいんバース　里山茶風,158635,,,33.2551818,131.3556383,大分県由布市湯布院町川南828-1,0977-76-5755
由布院温泉　旅館　古都の花心,147695,,,33.26708422,131.3599808,大分県由布市湯布院町川上1018-7,0977-85-4557
ホテル木綿恋記（ゆふごいき）,198052,,,33.2639512,131.3626917,大分県由布市湯布院町川上2760-1,0977-84-3766
由布院温泉　旅館　冨季の舎,32186,,,33.25493592,131.3560513,大分県由布市湯布院町川南814-1,0977-84-5811
由布院温泉　エステの宿　上の杜（かんのもり）,30954,,,33.26773455,131.3604672,大分県由布市湯布院町川上1023-5,0977-84-2701
由布院温泉　かほりの郷　はな村,43826,,,33.26675135,131.3618115,大分県由布市湯布院町川上3015-1,0977-84-4000
ｔｕｕｌｉ　ＹＵＦＵ　啓ーＫＥＩー【悠然】　＾,194917,,,33.26811658,131.3601931,大分県由布市湯布院町川上1023-1-1　ｔｕｕｌｉ　ＹＵＦＵ　啓-ＫＥＩ-【悠然】,090-7168-8600
ｔｕｕｌｉ　ＹＵＦＵ　啓ーＫＥＩー【悠々】　＾,194916,,,33.26810761,131.3602307,大分県由布市湯布院町川上1023-1-1　ｔｕｕｌｉ　ＹＵＦＵ　啓-ＫＥＩ-【悠々】,090-7168-8600
由布院　玉の湯,180079,,,33.26560522,131.363063,大分県由布市湯布院町川上2731-1,0977-84-2158
由布院　ＺＥＮ,168504,,,33.26505709,131.3466442,大分県由布市湯布院町川北596,0977-85-7700
由布院温泉　榎屋旅館,28502,,,33.26627643,131.3628004,大分県由布市湯布院町川上1086-2,0977-85-2285
由布院温泉　日の春旅館,30707,,,33.26645974,131.3627559,大分県由布市湯布院町川上1082-1,0977-84-3106
湯布院　柚木庵,184399,,,33.2637924,131.3643682,大分県由布市湯布院町川上2688-12,080-7625-0379
星湯　ＨＯＳＨＩＹＵ　＾,199608,,,33.2537624,131.3569759,大分県由布市湯布院町川南797-6,090-4984-7350
Ｙｕｆｕｉｎ　Ｏｎｓｅｎ　Ｖｉｌｌａ　森泉庵　＾,195764,,,33.253761,131.3570884,大分県由布市湯布院町川南797-7　森泉庵,080-1189-4760
由布院温泉　御宿　田　離宮,176658,,,33.26020854,131.3647562,大分県由布市湯布院町川上2417-1,0977-76-8898
湯布院温泉　御宿　由府両築,68226,,,33.26639309,131.363267,大分県由布市湯布院町川上1097-1,0000-00-0000
こもれびの宿　＾,193836,,,33.2536739,131.3567458,大分県由布市湯布院町川南796-1　こもれびの宿,090-4984-7350
由布院温泉　御宿　ゆふいん亭,41838,,,33.26818729,131.3614254,大分県由布市湯布院町川上山畔1027-3,0977-85-4296
ＴＥＲＲＡ湯布院,195983,,,33.2650641,131.3458994,大分県由布市湯布院町川北595-6,092-980-4595
湯布院温泉　由布の宿　きふう,84596,,,33.25606369,131.3625284,大分県由布市湯布院町川南258-5,0977-84-3336
由布院温泉　湯布院　やわらぎの郷　やどや,20590,,,33.26509326,131.3645364,大分県由布市湯布院町川上2717-5,0977-28-2828
由布院温泉　旅の宿　ぽっぽ庵,70705,,,33.25340269,131.3526405,大分県由布市湯布院町川南909-1,0977-84-5757
和モダンな温泉旅館　湯布院旅の蔵,147790,,,33.2632033,131.365318,大分県由布市湯布院町川上2655-3,050-3528-7717
天空の宿　＾,186746,,,33.2533968,131.3579141,大分県由布市湯布院町川南400-3-2　天空の宿,090-4984-7350
由布院ＳＴＡＹ玉の湯,193039,,,33.2655426,131.3645647,大分県由布市湯布院町川上2711-1,0977-85-8717
由布院温泉　山のホテル　夢想園,44815,,,33.25300962,131.3549813,大分県由布市湯布院町川南1243,0977-84-2171
由布院温泉　御宿　なか屋,70800,,,33.26649587,131.364053,大分県由布市湯布院町川上1530-2,0977-84-3835
大杉の宿　＾,186745,,,33.2532031,131.3577542,大分県由布市湯布院町川南400-3　大杉の宿,090-4984-7350
由布院温泉　旅館　めばえ荘,70229,,,33.25666365,131.3638116,大分県由布市湯布院町川南249-1,0977-85-3878
リゾート湯布院　〜Ｇｒａｎｄｐｉａ　Ｒｅｓｏｒｔ　ＹＵＦＵＩＮ〜,183101,,,33.265235,131.3650751,大分県由布市湯布院町川上2710-18,0977-33-9022
Ｙｕｆｕｉｎ　Ｌｕｘｕｒｙ　Ｖｉｌｌａ　－ｚａｋｕｒｏ－,158659,,,33.2536028,131.3500302,大分県由布市湯布院町川南1043-1,0977-76-8115
別邸ＧＥＮＳＥＮ,179660,,,33.2660656,131.3648908,大分県由布市湯布院町川上1530-10,0977-75-9238
由布岳露天ななふし　＾,194999,,,33.263285,131.3660036,大分県由布市湯布院町川上2612-6,090-4984-7350
由布院別邸　樹,144474,,,33.264569,131.365699,大分県由布市湯布院町川上2652-2,050-3528-2931
グランステイ＊ユフイン,193392,,,33.2655955,131.3652925,大分県由布市湯布院町川上2708,0977-75-6800
由布院温泉　癒しの里　観布亭,56821,,,33.26915386,131.3620087,大分県由布市湯布院町川上1065-2,0977-28-8818
湯布院　ログハウスの宿　トムソーヤ,178199,,,33.2654868,131.3447587,大分県由布市湯布院町川北586-3,090-6898-7323
由布院温泉　貸別荘　はこぶね,196378,,,33.2649432,131.3657368,大分県由布市湯布院町川上2701,070-8346-4708
由布院温泉　想い出の宿　はなせん,41933,,,33.26069935,131.3663058,大分県由布市湯布院町川上2485-9,0977-84-3783
Ｍｉｓｏｒａ　Ｙｕｆｕｉｎ,187102,,,33.2528573,131.3511062,大分県由布市湯布院町川南1153-11,0977-75-9238
ＬＥＮＴＯ湯布院,198779,,,33.2534447,131.3607422,大分県由布市湯布院町川南483-1,080-1039-0401
由布院温泉　由布岳一望の宿　美星〜きらら〜,80661,,,33.25475829,131.3628979,大分県由布市湯布院町川南547-1,0120-330-835
由布院温泉　吉祥開運亭　無尽蔵,31261,,,33.26709859,131.3647335,大分県由布市湯布院町川上1536番地1　湯の坪街道沿い,0977-84-2236
由布院温泉　東匠庵,75289,,,33.25310737,131.3497951,大分県由布市湯布院町川南1044-1,050-3528-3816
由布院温泉　全室露天付き離れ宿　御宿　さくら亭,145315,,,33.258369,131.366499,大分県由布市湯布院町川上宮ノ脇2172,0977-85-2838
由布院温泉　ゆふいん夢ひろば　別邸,108655,,,33.26587098,131.366214,大分県由布市湯布院町川上2635,0977-84-3402
由布院温泉　湯布院山荘　吾亦紅,76812,,,33.25414726,131.3630923,大分県由布市湯布院町川南589,0977-85-3331
ＹＵＦＵＩＮ　ＦＬＯＲＡＬ　ＶＩＬＬＡＧＥ　ＨＯＴＥＬ,141261,,,33.26742998,131.3652855,大分県由布市湯布院町川上1503-3,070-5479-0888
湯布院別荘　受け月,153133,,,33.2672447,131.3654707,大分県由布市湯布院町川上1503-7,0977-84-2737
ｉＯＲｉ　Ｙｕｆｕｉｎ,183031,,,33.2669765,131.3657549,大分県由布市湯布院町川上1540‐4,0977-75-9238
山紫水明の宿　わさく,187438,,,33.2588474,131.3669839,大分県由布市湯布院町川上2166-3,080-9281-3651
由布院温泉　草庵秋桜,139452,,,33.26674033,131.3660195,大分県由布市湯布院町川上1500,0977-85-4567
由布院温泉　秘密基地　時のかけら　─Ｓｅｃｒｅｔ　ｂａｓｅ　ＴＯＫＩ　ＮＯ　ＫＡＫＥＲＡ─,84651,,,33.25571062,131.3450189,大分県由布市湯布院町川北2258-4,0977-84-2622
由布院温泉　旅館光の家,14835,,,33.25973686,131.3673829,大分県由布市湯布院町川上2490,0977-85-3011
由布院温泉　柚富の郷　彩岳館,20453,,,33.25457778,131.3641895,大分県由布市湯布院町川上2378-1,0977-44-5000
由布院温泉　旅館　ほたるの宿　仙洞,41834,,,33.26561547,131.3668306,大分県由布市湯布院町川上2634-1,0977-84-4294
ペンション長閑郷,28365,,,33.27216167,131.3524706,大分県由布市湯布院町川上3283-1,0977-84-5321
ＣＯＣＯ　ＶＩＬＬＡ　湯布院　＾,199673,,,33.2637107,131.367706,大分県由布市湯布院町川上1815-6,03-6435-4032
湯布院温泉　おやど花の湯,162718,,,33.26564157,131.3430086,大分県由布市湯布院町川北644-3,0977-28-2511
由布院温泉　由布院　寛ぎの宿　なな川,76428,,,33.26647371,131.3668167,大分県由布市湯布院町川上1551-8,0977-85-3508
おやど　開花亭,137975,,,33.25954396,131.3681751,大分県由布市湯布院町川上2150-1,0977-28-8878
由布院温泉　旅亭　田乃倉,38277,,,33.26649038,131.3672527,大分県由布市湯布院町川上1556-2,0977-84-2251
ゆふいん　別墅ＭＵＳＡ,191774,,,33.26163308,131.3416648,大分県由布市湯布院町川北990-1,0977-84-7000
由布院温泉　由布の彩YADOYAおおはし,78074,,,33.26057389,131.3417135,大分県由布市湯布院町川北1235,0977-84-5565
Ｒａｋｕｔｅｎ　ＳＴＡＹ　ＨＯＵＳＥ　ｘ　ＷＩＬＬ　ＳＴＹＬＥ　湯布院川上,177717,,,33.27188159,131.3611367,大分県由布市湯布院町川上886-2,050-1754-3992
由布院温泉　湯布院　山灯館,32476,,,33.26696533,131.3674138,大分県由布市湯布院町川上1553,0977-84-5310
ちゃちゃ丸のお宿　＾,176098,,,33.2642503,131.3687684,大分県由布市湯布院町川上1777－4　Ｃｈａｃｈａｍａｒｕ　ｎｏ　Ｏｙａｄｏ,090-4984-7350
琴の音　舞　＾,176257,,,33.2640501,131.3688601,大分県由布市湯布院町川上1778－2　ＫＯＴＯＮＯＮＥ　ＭＡＩ,090-7168-8600
琴の音　鈴　＾,176258,,,33.2640501,131.3688601,大分県由布市湯布院町川上1778－2　ＫＯＴＯＮＯＮＥ　ＳＵＺＵ,090-7168-8600
湯布院　黒木家　＾,176095,,,33.26434698,131.3688553,大分県由布市湯布院町川上1776－5　Ｙｕｆｕｉｎ　Ｋｕｒｏｋｉｙａ,090-4984-7350
月洸樹　由布院,189041,,,33.2595889,131.3689572,大分県由布市湯布院町川上2106-8,050-3613-0870
和家　＾,168849,,,33.2642301,131.3689289,大分県由布市湯布院町川上1777－1　ＮＡＧＯＭＩＹＡ,050-5444-6620
湯布院　政庵　＾,176259,,,33.2642301,131.3689289,大分県由布市湯布院町川上1777－1　ＹＵＦＵＩＮ　ＭＡＴＳＵＲＩＡＮ,080-8954-8705
【ｔｕｕｌｉ　ＹＵＦＵ　ＨＯＳＨＩ】２０２５年６月ＯＰＥＮ　＾,194573,,,33.2715328,131.3631246,大分県由布市湯布院町川上826-1　ｔｕｕｌｉ　ＹＵＦＵ　ＨＯＳＨＩ,090-4984-7350
由布倉院　＾,176096,,,33.264327,131.368938,大分県由布市湯布院町川上1776－1　・1776－3　Ｙｕｆｕｓｏｕｉｎ,090-4984-7350
湯布院「我楽珍」民泊／民泊,185233,,,33.2732354,131.3588017,大分県由布市湯布院町川上693　我楽珍,080-7980-3598
御宿　ぬるかわ温泉,39470,,,33.26753193,131.3675693,大分県由布市湯布院町川上1490-1,0977-84-2869
由布院温泉　カントリーイン麓舎,108892,,,33.26832072,131.3670083,大分県由布市湯布院町川上1469-2,0977-84-2963
由布院　梅園　ＧＡＲＤＥＮ　ＲＥＳＯＲＴ,39494,,,33.2591968,131.3691361,大分県由布市湯布院町川上馬場2106-2,050-3528-2940
陽なた庵　＾,176132,,,33.2643919,131.3693037,大分県由布市湯布院町川上1774－1　Ｈｉｎａｔａ－ａｎ,080-8954-8705
ゆふいん　笑ねこの宿,163062,,,33.2520377,131.3464198,大分県由布市湯布院町川南1607-2,0977-85-7355
由布院温泉　和の宿　狭霧亭,41835,,,33.27161195,131.3637862,大分県由布市湯布院町川上811-1,0977-85-4292
湯布院温泉　ひすいの宿　黎明,84878,,,33.25591659,131.367903,大分県由布市湯布院町川上2212-35,0977-85-5016
由布院温泉　民宿　つたや,32453,,,33.2695612,131.3664123,大分県由布市湯布院町川上1453-1,0977-85-3803
由布院　離れの宿　優夏月,184593,,,33.2517236,131.3467593,大分県由布市湯布院町川南1606-1,0977-84-5123
ＥＴＡＶＩＡ湯布院金鱗湖,172859,,,33.2688806,131.3673456,大分県由布市湯布院町川上1639-1,0977-765-443
Ｇａｒｄｅｎ－Ｖｉｅｗ　ゆふ　＾,190463,,,33.272288,131.363166,大分県由布市湯布院町川上834-2　Ｇａｒｄｅｎ-Ｖｉｅｗ　ゆふ,03-6823-8830
由布院温泉　コテージ湖畔,147929,,,33.2654138,131.3693915,大分県由布市湯布院町川上1761-5,0977-85-3043
ダビデの館　＾,168908,,,33.265396,131.369417,大分県由布市湯布院町川上1761－1　DAVIDE NO YAKATA,080-1774-0297
こや・かやき,191728,,,33.2715802,131.3647742,大分県由布市湯布院町川上1180-23,03-6231-0330
由布院温泉　すみか,130594,,,33.26085441,131.370426,大分県由布市湯布院町川上2059-3,0977-84-4391
由布院温泉　星降る宿　星庵,106100,,,33.27054268,131.3663999,大分県由布市湯布院町川上1170-6,0977-85-3008
湯布院　金鱗湖畔　珈琲宿　ぷらたなす／民泊,194018,,,33.2679075,131.3686795,大分県由布市湯布院町川上1623,070-9059-9528
由布院温泉　ペンション金鱗湖　豊の国,40557,,,33.26677935,131.369574,大分県由布市湯布院町川上1561,0977-84-3011
由布院温泉　ほてい屋,43844,,,33.27039827,131.367211,大分県由布市湯布院町川上1414,0977-84-2900
天ゆふ　＾,168965,,,33.2675224,131.3694677,大分県由布市湯布院町川上1576,03-6823-8830
由布院温泉　木蓮,76835,,,33.26231037,131.3711081,大分県由布市湯布院町川上1892,0977-84-5555
ゆふいん温泉　別荘　今昔庵,74758,,,33.27079822,131.3671498,大分県由布市湯布院町川上1417,0977-85-3031
湯布院別荘　四季彩ホテル,141911,,,33.2728655,131.364777,大分県由布市湯布院町川上788-2,0977-85-8566
ゆふｉｎｎ　＾,168964,,,33.272077,131.3663719,大分県由布市湯布院町川上字鳥越1188－18,03-6823-8830
由布院温泉　山荘　わらび野,138081,,,33.26138206,131.3382721,大分県由布市湯布院町川北952-1,0977-85-2100
民泊　和楽／民泊,195510,,,33.2757845,131.3529513,大分県由布市湯布院町川上573-7,090-3070-7679
Ｈｏｍｅｙ　ｉｎｎ　えんや,68191,,,33.26291522,131.3380916,大分県由布市湯布院町川北780-2,0977-85-2101
湯布院温泉　由布院ユウベルホテル,129463,,,33.26361024,131.3720524,大分県由布市湯布院町川上1691-8,0977-28-2552
由布院温泉　楓の小舎,72793,,,33.27296461,131.3658444,大分県由布市湯布院町川上1270-28,0977-28-8181
由布院温泉　御宿　たまゆら,109136,,,33.24926694,131.3465717,大分県由布市湯布院町川南中ノ切1533-3,0977-85-3277
由布院温泉　由布の癒　友里,76447,,,33.27395336,131.3645083,大分県由布市湯布院町川上上新町783-1,0977-85-2001
湯布院　星の里,178981,,,33.256034,131.3710145,大分県由布市湯布院町川上1984-26,080-3225-1984
大正　由布の花,168598,,,33.27250283,131.367027,大分県由布市湯布院町川上字鳥越1188-3,0977-75-8783
由布院　元（ＨＡＪＩＭＥ）,149078,,,33.2736999,131.3653149,大分県由布市湯布院町川上786-5,0977-76-5159
ゆふの音　＾,186461,,,33.2493226,131.3457305,大分県由布市湯布院町川南1523-1　ゆふの音,03-6823-8830
由布院温泉　ゆふいん宿　清孔苑,158617,,,33.2731971,131.366401,大分県由布市湯布院町川上鳥越1208-1,0977-76-5438
雅　－ＭＩＹＡＢＩ－,196518,,,33.2612419,131.3373701,大分県由布市湯布院町川北948-17,092-409-4892
ゆふいん森のホテル　Ｓｈａｎ－Ｊｅｗｅｌ（シャン・ジュエル）,168210,,,33.27043114,131.3695521,大分県由布市湯布院町川上1350-1,0977-76-5500
由布院温泉　野蒜山荘（のびるさんそう）,30058,,,33.27426168,131.3654332,大分県由布市湯布院町川上７８６番地６,0977-85-4768
由布院温泉　御宿　一禅,31202,,,33.27345902,131.366772,大分県由布市湯布院町川上1209-1,0977-85-2357
ゆふいん由布茶寮,166932,,,33.2717916,131.3688565,大分県由布市湯布院町川上1389,0977-76-8140
民泊ｈａｒｕｎａ,172392,,,33.2711388,131.3695731,大分県由布市湯布院町川上1334,0977-51-5433
宗鶴庵　＾,199553,,,33.2570948,131.3725072,大分県由布市湯布院町川上1984-151　Ｓｏｋａｋｕａｎ,050-1741-0183
由布院温泉グランピング　風の響き,187285,,,33.27147805,131.3695261,大分県由布市湯布院町川上1314-1,0977-85-7822
ｖｉｌｌａエーデン,189058,,,33.26098643,131.336442,大分県由布市湯布院町川北918-37,0977-76-5414
ゆふ山荘｜湯布院の自然と温泉でゆったりステイ｜金鱗湖＆由布岳散策もすぐ　＾,191041,,,33.27293658,131.3682392,大分県由布市湯布院町川上1225-3　ゆふ山荘,03-6823-8830
由布院温泉　湯富里の宿　一壷天,72871,,,33.27687219,131.3495707,大分県由布市湯布院町川上302-7,0977-28-8815
Ｔｈｅ　Ｖｉｌｌａｇｅ由布院　温泉グランピング,180797,,,33.25689744,131.3731796,大分県由布市湯布院町川上1996-1,0977-75-9201
由布院温泉　おやど　二本の葦束,54542,,,33.26188474,131.3359446,大分県由布市湯布院町川北918-18,0977-84-2664
湯布の風屋,178299,,,33.2744985,131.3668877,大分県由布市湯布院町川上1212-20,0977-76-5488
湯布院ホテル森のテラス,147081,,,33.262912,131.3358121,大分県由布市湯布院町川北928,0977-28-2000
由布院温泉　杜の湯　ゆふいん泰葉,108997,,,33.27490053,131.3667942,大分県由布市湯布院町川上1270-48,0977-85-2226
旅館　由布山,145331,,,33.25768831,131.3742008,大分県由布市湯布院町川上宮ノ原1984-164,0977-84-5110
由布露天　余情の美　＾,176225,,,33.2668852,131.336045,大分県由布市湯布院町川北26－6　ＹＵＨＵＲＯＴＥＮ　ＹＯＪＹＯＵ　ＮＯ　ＢＩ,090-4984-7350
ＥＮＯＷＡ　ＹＵＦＵＩＮ,187963,,,33.2763999,131.3655169,大分県由布市湯布院町川上丸尾544,0120-770-655
Ｒａｋｕｔｅｎ　ＳＴＡＹ　ＶＩＬＬＡ　由布院温泉,195540,,,33.26100385,131.3347391,大分県由布市湯布院町川北899-35,050-1750-9719
由布院温泉　オーベルジュ　檪屋,137779,,,33.2754477,131.3677747,大分県由布市湯布院町川上1269-26,0977-85-3383
由布院温泉　ゆふいん　旅庵　和山豊,69247,,,33.27902753,131.3512177,大分県由布市湯布院町川上388-1,0977-28-8805
由布院温泉　束ノ間,104794,,,33.27632537,131.3670219,大分県由布市湯布院町川上444-3,0977-85-3105
団体・合宿・ペット歓迎♪源泉かけ流しの貸し別荘ともみ山荘／民泊,173863,,,33.2760412,131.3678862,大分県由布市湯布院町川上1270-90,080-4275-5557
山荘　紗羅樹,168291,,,33.258329,131.3335152,大分県由布市湯布院町川北1354-20,0977-76-8318
湯布院　樂涌,191814,,,33.2763891,131.3688258,大分県由布市湯布院町川上1272-88,0977-75-8010
由布院温泉　御宿　八遇來,44895,,,33.277001,131.367901,大分県由布市湯布院町川上1270-81,0977-85-5110
由布院温泉　山荘　無量塔,69384,,,33.27579493,131.3697439,大分県由布市湯布院町川上1264-2,0977-84-5000
ゆけむり山荘,197642,,,33.2771892,131.3676214,大分県由布市湯布院町川上442-33,0977-75-9170
由布院温泉　ゆふいん椿,75166,,,33.2585184,131.3330227,大分県由布市湯布院町川北1371-2,0977-28-8100
インターヒル　翼　湯布院,177815,,,33.26130144,131.3323463,大分県由布市湯布院町川北899-21,0977-28-8008
ゆふいん　ゲストハウス　木綿の夢　ｃｏｔｔｏｎ　ｄｒｅａｍ,178990,,,33.2775432,131.3679351,大分県由布市湯布院町川上442-19,0977-85-7220
ＨＯＴＥＬ　ＭＯＤＡ,198450,,,33.2779564,131.3677153,大分県由布市湯布院町川上442-22,050-1725-4095
ゆふいん田舎村いなか荘,160845,,,33.2775247,131.3684784,大分県由布市湯布院町川上440-19,0977-84-5282
由布院温泉　朝霧のみえる宿　ゆふいん花由,76377,,,33.26038653,131.3319461,大分県由布市湯布院町川北913-11,0977-85-5000
由布院温泉　ゆふいん七色の風,29773,,,33.26047269,131.3784452,大分県由布市湯布院町川上1946-25,0977-84-3333
由布院温泉　ゆふいん月燈庵,54519,,,33.28112726,131.349765,大分県由布市湯布院町川上295-2,0977-28-8801
湯布院カントリーロードユースホステル,65435,,,33.27862514,131.3689467,大分県由布市湯布院町川上441-29,0977-84-3734
由布院迎賓館　鳥越別邸,193180,,,33.2792019,131.369231,大分県由布市湯布院町川上441-27,080-7625-0379
由布院迎賓館　蔵,193179,,,33.2793898,131.3692761,大分県由布市湯布院町川上440-32,080-7625-0379
シークレットベースゆふいん　＾,186578,,,33.2442373,131.3404522,大分県由布市湯布院町中川338-1　ｓｅｃｒｅｔ　ｂａｓｅ,03-6823-8830
ときリゾート由布院別邸,161030,,,33.25761233,131.3279232,大分県由布市湯布院町川北桃木1615-1,0977-76-8111
湯布ゆらら山荘,161102,,,33.26902461,131.3273536,大分県由布市湯布院町川北894-212,090-8666-0003
絶景の宿　ゆふの天空（そら）　＾,186155,,,33.2715528,131.327406,大分県由布市湯布院町川北894-677　絶景の宿　ゆふの天空（そら）,090-3195-7901
ＢＯＯＫＭＡＲＱ　ｙｕｆｕｉｎ／民泊,185541,,,33.2492225,131.3285423,大分県由布市湯布院町川西61-34　ＢＯＯＫＭＡＲＱ　ｙｕｆｕｉｎ,090-4995-8660
由布のお宿　ほたる,70870,,,33.25060808,131.3274817,大分県由布市湯布院町川北1791-1,0977-84-5151
湯布院ガーデンホテル　ドッグラン＆リゾート,137895,,,33.24381729,131.3329731,大分県由布市湯布院町中川1120,0977-28-2008
由布院　蔓蕩蒼　－　Ｍａｔｏｕｓｏｕ　－,19540,,,33.24227028,131.3346813,大分県由布市湯布院町中川1081,0977-28-2211
由布山荘　葉隠／民泊,189788,,,33.2497927,131.3268575,大分県由布市湯布院町川北1767-22　Ｙｕｆｕ　Ｓａｎｓｏ　Ｈａｇａｋｕｒｅ,0977-75-8138
ゆふいん和音の宿／民泊,191094,,,33.2494292,131.3264796,大分県由布市湯布院町川北1763-21　ゆふいん和音の宿,080-3229-5328
湯布院別荘　〜奏〜　＾,185793,,,33.2496554,131.3262648,大分県由布市湯布院町川北深山1756-23　奏,090-9561-7664
旅籠Ｈａｔａｇｏ　香乃蔵　（旧名：湯亭　香乃蔵）,129936,,,33.24392834,131.3301928,大分県由布市湯布院町川西243-1,0977-28-2228
由布院グランピング　天の庭,187187,,,33.2870502,131.3420191,大分県由布市湯布院町川上186-1,0977-75-9129
ＹＵＦＵＩＮ　ＨＯＧＯＮＥＫＯ　ＦＯＲＥＳＴ,198923,,,33.2248328,131.3037571,大分県由布市湯布院町川西字栗谷1755-37,0977-33-9089
湯布院山下湖ロッジ,151368,,,33.1981211,131.2963518,大分県由布市湯布院町川西2174-143,0977-84-3153
菊水,192237,,,33.1952048,131.3268966,大分県由布市湯布院町湯平507-6,0977-86-2520
湯平温泉　清流とほたるの宿　高尾荘,129598,,,33.19481998,131.3273833,大分県由布市湯布院町湯平503-18,0977-86-2046
湯平温泉　大吉旅館,129647,,,33.19348121,131.3260695,大分県由布市湯布院町湯平347-3,0977-86-2414
湯平温泉　旅館都屋,151282,,,33.1935951,131.3264807,大分県由布市湯布院町湯平359-5,0977-86-2461
湯平温泉　白雲荘　＜大分県＞,151284,,,33.1930646,131.3257975,大分県由布市湯布院町湯平344,0977-86-2411
湯平温泉　旅館　まるや,80703,,,33.1920647,131.3257113,大分県由布市湯布院町湯平330,0977-86-2418
湯平温泉　右丸旅館,139405,,,33.19196749,131.3255668,大分県由布市湯布院町湯平331,0977-86-2002
湯平温泉　癒しの宿　鷹勝,144993,,,33.191509,131.324859,大分県由布市湯布院町湯平791,0977-86-2828
湯平温泉　旅館　山城屋,129937,,,33.19250634,131.3266917,大分県由布市湯布院町湯平309-1,0977-86-2462
湯平温泉　宿彩暁雲荘　源泉掛け流し大人限定宿,130609,,,33.19269654,131.3271349,大分県由布市湯布院町湯平295-1,0977-86-2004
湯平温泉　奥ゆのひら　花灯り,79345,,,33.19181473,131.3257946,大分県由布市湯布院町湯平675-1,0977-86-2211
湯平温泉　宿潦ばん屋,30945,,,33.19148698,131.3253447,大分県由布市湯布院町湯平798,0977-86-2412
ゆふいん　湯平温泉　山荘松屋,70905,,,33.19118978,131.3249058,大分県由布市湯布院町湯平803-1,0977-86-2151
湯平温泉　やまとや旅館　＜大分県＞,129683,,,33.19208416,131.3266556,大分県由布市湯布院町湯平286,0977-86-2035
志美津旅館,198621,,,33.1911301,131.3254651,大分県由布市湯布院町湯平263,0977-86-2111
湯平温泉　旅館いづもや,151283,,,33.19223635,131.3273201,大分県由布市湯布院町湯平311,0977-86-2045
ゆのひら　上柳屋,29253,,,33.18988158,131.3241476,大分県由布市湯布院町湯平1007,0977-86-2104
湯平温泉　ゆけむりの宿　花木綿,141260,,,33.1894265,131.3246703,大分県由布市湯布院町湯平1022,0977-86-2313
アパホテル〈大分駅前〉,197319,,,33.23440981,131.6074539,大分県大分市金池町1-1-1,097-529-8320
Ｔａｂｉｓｔ　ホテルスマートスリープス　大分駅前,149042,,,33.2347553,131.6081472,大分県大分市金池町2-1-3レインボービル7F,097-576-9124
大分リーガルホテル,5819,,,33.23512644,131.6088098,大分県大分市府内町1-1-29,097-536-3000
天然温泉　白糸の湯　ドーミーイン大分（ドーミーイン・御宿野乃　ホテルズグループ）,166556,,,33.23414411,131.605524,大分県大分市末広町1-2-1,097-536-5489
大分センチュリーホテル,7308,,,33.23586526,131.6093986,大分県大分市府内町1-4-28,097-536-2777
東横ＩＮＮ大分駅前,70194,,,33.23470149,131.6088876,大分県大分市金池町2-2-5,097-534-1045
ホテルエリアワン大分（ホテルエリアワングループ）,15317,,,33.23803166,131.6083292,大分県大分市府内町3-3-7,097-537-8878
天然温泉　アリストンホテル大分,193114,,,33.2338715,131.6080184,大分県大分市金池町1-2-1,097-578-7900
ＪＲ九州ホテルブラッサム大分,147712,,,33.23372951,131.6055966,大分県大分市要町1-14,097-578-8719
ＲＯＸＹ　ＩＮＮ（若竹ビル）　＾,186348,,,33.2370664,131.609651,大分県大分市府内町2-4-8　若竹ビル453号室,097-574-6148
ＦＯＲＺＡ　ホテルフォルツァ大分,72040,,,33.23884265,131.6069626,大分県大分市中央町1-5-18,097-513-0018
ホテルルートイン大分駅前,52642,,,33.23359049,131.6081988,大分県大分市金池町1-3-1,050-5576-7902
ホテルマイステイズ大分,67983,,,33.23919818,131.6075904,大分県大分市荷揚町1-32,097-514-4055
ホテル法華クラブ大分,117,,,33.23932036,131.6063099,大分県大分市都町2-1-1,097-532-1121
アートホテル大分,172891,,,33.23939803,131.6055895,大分県大分市都町2-1-7,097-538-8701
グリーンリッチホテル大分都町,14861,,,33.23928422,131.6044295,大分県大分市都町3-1-5,097-535-2525
ダイワロイネットホテル大分,70923,,,33.23996198,131.6076209,大分県大分市荷揚町2-3,097-535-0022
ラ・ガール大分,9442,,,33.23391534,131.6023993,大分県大分市大道町1-6-17,097-546-3000
Ｂｌｉｓｓ金池,197595,,,33.2347688,131.6115543,大分県大分市金池町2-5-6,070-8992-3289
ホテル日航大分　オアシスタワー,1801,,,33.23829539,131.6022103,大分県大分市高砂町2-48　,097-533-4411
ホテルザーズ,804,,,33.23979248,131.6038046,大分県大分市都町3-2-24,097-535-1000
大分クレインホテル都町店,62193,,,33.24085625,131.6041434,大分県大分市都町3-5-8,097-537-8377
ビジネスホテル　ボストン,196738,,,33.2383635,131.6008694,大分県大分市高砂町10-1,097-548-5555
ホテルクドウ大分,10673,,,33.23221259,131.6114334,大分県大分市金池町1-11-6,097-532-3981
ＯＩＴＡ　ＳＴＡＹ　Ｉｎｎ　Ｍｉｙａｋｏｍａｃｈｉ,198337,,,33.241509,131.6035495,"大分県YMビル, 3階, ３丁目-６-１２ 都町 大分市 大分県 870-0034",070-6594-9946
ＨＯＴＥＬ９１０,136125,,,33.23186578,131.6126373,大分県大分市顕徳町1-2-2,097-532-3331
天然温泉　都の湯　ホテルクラウンヒルズ大分（ＢＢＨホテルグループ）,104513,,,33.24188945,131.6030074,大分県大分市都町4-3-12,050-1807-2992
レンブラントホテル大分,4847,,,33.23365975,131.5991107,大分県大分市田室町9-20,097-545-1040
ニューグロリア大分ホテル,41390,,,33.24192277,131.6024018,大分県大分市寿町11-31,097-534-6421
ＢＥＴＴＥＩ,191628,,,33.2291143,131.6126142,大分県大分市上野町3-20,011-374-4638
Ｂｌｉｓｓ長浜,197596,,,33.2355857,131.6213525,大分県大分市長浜3-4-7,070-8992-3289
旅館まつやま,29272,,,33.23777099,131.6294134,大分県大分市岩田町3-5-26,097-558-1187
ビジネスホテルＫＧ大分,37364,,,33.24693293,131.5828785,大分県大分市浜の市2丁目2-1,097-514-3778
オーベルジュ　リヒト,191569,,,33.3265097,130.9372486,大分県日田市豆田町3-10,0973-25-0010
ホテル風早（かざはや）,31421,,,33.32764732,130.9366397,大分県日田市豆田町8-25,0973-22-2113
伯亭　若の屋,41888,,,33.32812227,130.9371563,大分県日田市豆田町7-31,0973-24-3737
水処稀荘,172504,,,33.3290346,130.9361662,大分県日田市豆田町14-7,090-5368-7007
巨人の宿　＾,190778,,,33.3208075,130.9317028,大分県日田市三本松2-6-45　巨人の宿,03-6231-0330
Ｔｓｕｍｕｇｉ　Ｈｉｔａ　Ｃｅｎｔｒａｌ　Ｂａｓｅ　＾,199626,,,33.3180832,130.9372722,大分県日田市中央1-1-3,090-4984-7350
ＳＴＡＹ＋ＣＡＦＥ　ＥＮＴＯ,180723,,,33.31719984,130.9384751,大分県日田市元町11-1 日田駅2Ｆ,0973-23-5701
スマイルホテル大分日田,166950,,,33.317444,130.9346692,大分県日田市中央2-2-5,0973-22-0303
レディースインｍｏＴｏｍａｃｈｉ,151276,,,33.3169358,130.9369107,大分県日田市元町15-9,070-9352-6029
ホテルルートイン日田駅前,153404,,,33.31638276,130.9386352,大分県日田市元町21-14,050-5847-7411
ホテル　ソシア,40925,,,33.31610585,130.9373341,大分県日田市元町17-3,0973-24-6000
旅の宿　さつき,50527,,,33.31601808,130.9364039,大分県日田市本町1-1,0973-22-2862
プラザホテル　フジノイ,40949,,,33.31567927,130.9382871,大分県日田市元町19-27,0973-24-7000
ホテル　アウルム日田（旧パークインサトー）,104595,,,33.31578466,130.9302711,大分県日田市隈2-8-15,0973-22-1188
旅館　清流荘,43857,,,33.31424873,130.930435,大分県日田市隈2-3-7,0973-22-3244
東のおうち　一棟貸し　＾,186329,,,33.31275706,130.9358553,大分県日田市東町603-4　東のおうち,080-9106-7281
日田ホステル,197698,,,33.3129617,130.9323707,大分県日田市隈1-1-23,090-1833-1810
ｃａｆｆｅｌ　ひなのさと,63867,,,33.31289611,130.9306517,大分県日田市隈1-3-8,0973-22-2134
日田温泉　亀山亭ホテル,67038,,,33.3126628,130.9308878,大分県日田市隈1-3-10,0973-23-2191
Ｒｙｏｋａｎ＆Ｓａｕｎａ　Ｙｏｒｏｚｕｙａ　Ｈｉｔａ,37848,,,33.31250449,130.9310822,大分県日田市隈1丁目3-12,0973-22-3138
ホテル＆レストラン　ＫＩＺＡＮ倶楽部,164494,,,33.312336,130.9314917,大分県日田市隈1-3-16,0973-28-5230
日田温泉　小京都の湯　みくまホテル,40499,,,33.31216288,130.9317072,大分県日田市隈1丁目3-19,0973-23-3000
日田温泉　はなの樹　ＲＩＶＥＲ　ＴＥＲＲＡＣＥ,44901,,,33.31268201,130.9183445,大分県日田市中ノ島町685-6,0973-24-0811
湯ノ釣温泉　旅館　渓仙閣,107692,,,33.26175426,131.0518172,大分県日田市天瀬町赤岩913-1,0973-57-2355
東横ＩＮＮ大分中津駅前,108406,,,33.59924341,131.1893039,大分県中津市豊田町10-11,0979-25-1045
中津サンライズホテル,13465,,,33.59733254,131.1905316,大分県中津市豊田町1-11,0979-24-3355
天然温泉　扇城の湯　スーパーホテル大分・中津駅前,71925,,,33.59688538,131.1909344,大分県中津市東本町3-12,0979-23-9000
ホテルルートイン中津駅前,51222,,,33.59929903,131.1928508,大分県中津市中殿福成467-3,0979-85-0050
グランプラザ中津ホテル,18954,,,33.59789363,131.1922676,大分県中津市東本町1-2,0979-24-7111
ビジネスホテルナカツ,84959,,,33.59699093,131.1913621,大分県中津市東本町3-19,0979-24-1888
すえひろや　＾,194773,,,33.60178787,131.1838833,大分県中津市諸町1845　すえひろや,090-4984-7350
竹内旅館　＜大分県＞,106240,,,33.60149048,131.1944756,大分県中津市蛭子町２丁目３０番地,0979-22-1874
ＨＯＴＥＬ　ＡＺ　福岡吉富店,151179,,,33.60710706,131.1693003,福岡県築上郡吉富町広津879-2,0979-22-3801
汽車ポッポ食堂と民宿・別邸,176720,,,33.5795418,131.1864799,大分県中津市万田500-1,0979-22-0275
バルンバルンの森,167220,,,33.5004294,131.1637656,大分県中津市本耶馬渓町曽木459-9,0979-52-3020
八面山金色温泉　こがね山荘,78077,,,33.5151727,131.2015746,大分県中津市三光田口金色584-1,0979-26-8066
ゲストハウス　さんかくワサビ,192120,,,32.9574094,131.8958617,大分県佐伯市内町3-26 2階,080-4051-8629
佐伯セントラルホテル,108716,,,32.956322,131.896017,大分県佐伯市向島2-11-33,0972-22-8511
ＵＮＤ,193062,,,32.9553861,131.8978782,大分県佐伯市向島1-13-14,050-7132-1455
ビジネスホテル　サンセイ,167358,,,32.96298134,131.902411,大分県佐伯市常盤南町9-4,0972-22-2782
ホテルルートイン佐伯駅前,149129,,,32.97169633,131.9026089,大分県佐伯市駅前2-6-40,050-5847-7410
ホテル　金水苑,44985,,,32.97318186,131.9037334,大分県佐伯市駅前2-4-13,0972-22-8181
ビジネスホテル　清風荘　＜大分県＞,165168,,,32.9742711,131.9033568,大分県佐伯市日の出町2-1,0972-22-1452
喜安屋旅館,41473,,,33.12042111,131.8059288,大分県臼杵市港町東3組,0972-63-6600
五嶋旅館,52856,,,33.11944342,131.8048817,大分県臼杵市臼杵140-9,0972-63-1051
クレドホテル臼杵,84957,,,33.11907961,131.8068482,大分県臼杵市海添2573-10,0972-63-5666
ホテル蔵,162885,,,33.12242168,131.7993376,大分県臼杵市臼杵祇園洲21-1,0972-64-0616
御宿・料亭　春光園,74722,,,33.12340119,131.7989626,大分県臼杵市祇園西区３組,0972-63-3128
ビジネスホテルすが野,181862,,,33.1202689,131.7979225,大分県臼杵市大字臼杵602,0972-63-3388
ホテルニューうすき,75266,,,33.11050783,131.7803313,大分県臼杵市千代田区1組,0972-64-0777