,name,rakuten_id,jalan_id,yahoo_id,lat,lng,address,tel
1,ロイヤルビューホテル美ら海,15062,yad346870,00030772,26.695228,127.87919,沖縄県国頭郡本部町石川938,0980-48-3631
2,ゆくりなリゾート沖縄 海風,172796,yad344384,00907941,26.69219,127.882,沖縄県国頭郡本部町石川799-2,0980-48-3903
3,ホテルマハイナ ウェルネスリゾートオキナワ,14584,yad314427,00030565,26.682924,127.88251,沖縄県国頭郡本部町山川1456,0980-51-7700
4,コスタベージャ　コンドミニアムリゾート＜本部町＞,166326,yad307933,00050672,26.656757,127.88268,沖縄県国頭郡本部町大浜872-7,0980-47-2142
5,カリーコンド美ら海,177856,yad348214,00050889,26.681827,127.88746,沖縄県国頭郡本部町山川46-1,0980-48-2838
6,オリオンホテル　モトブリゾート＆スパ,145419,yad307948,00002000,26.69908,127.87936,沖縄県国頭郡本部町備瀬148-1,0980-51-7300
7,ウィステリア・コンドミニアム・リゾート,149384,yad336920,00030200,26.68616,127.87713,沖縄県国頭郡本部町山川973,0980-51-7722
8,美ら海ビレッジ,197326,yad338738,00904289,26.628858,127.88803,沖縄県国頭郡本部町崎本部34,0980-48-3999
9,Ｆｕｋｕｇｉ　Ｔｅｒｒａｃｅ（フクギテラス）,67833,yad396860,00050210,26.702916,127.88068,沖縄県国頭郡本部町備瀬458,0980-48-2911
10,ニルヤカナヤＢＩＳＥ,184542,yad300252,00913637,26.701252,127.87967,沖縄県国頭郡本部町備瀬402,0980-43-9143
11,美ら海テラス,192028,yad339796,00917251,26.682046,127.88201,沖縄県国頭郡本部町字山川403-1,098-911-5077
12,ベッセルホテルカンパーナ沖縄,135479,yad306902,00080893,26.315197,127.75424,沖縄県中頭郡北谷町字美浜9番地22（アメリカンビレッジ内）,098-926-1188
13,レクー沖縄北谷スパ＆リゾート,178706,yad390322,00002854,26.318007379858095,127.75511045622046,沖縄県中頭郡北谷町美浜34-2,098-936-2288
14,ザ・ビーチタワー沖縄,29412,yad346964,00002245,26.314439,127.75582,沖縄県中頭郡北谷町美浜8-6,098-921-7711
15,ヒルトン沖縄北谷リゾート,145475,yad308366,00002009,26.318444,127.75471,沖縄県中頭郡北谷町美浜40-1,098-901-1111
16,ラ・ジェント・ホテル沖縄北谷,166209,yad362292,00081514,26.321346,127.7551,沖縄県中頭郡北谷町美浜25‐3,098-926-0210
17,ダブルツリーbyヒルトン沖縄北谷リゾート,167040,yad360945,00002531,26.317908,127.75364,沖縄県中頭郡北谷町美浜43,098-901-4600
18,コンドミニアムホテル モンパ,147924,yad306315,00050073,26.314889,127.75581,沖縄県中頭郡北谷町美浜8-12,098-936-0088
19,ココシャスモンパ,167080,yad348236,00050665,26.32188,127.75597,沖縄県中頭郡北谷町美浜25-1,098-923-3388
20,ＭＢ ＧＡＬＬＥＲＹ ＣＨＡＴＡＮ ｂｙ ＴＨＥ ＴＥＲＲＡＣＥ ＨＯＴＥＬＳ,182456,yad353162,00002913,,,,
21,リーガロイヤルリゾート沖縄 北谷,197765,yad390908,00003398,26.316778,127.7576,沖縄県中頭郡北谷町美浜15-69,098-989-7077
22,ダブルツリーbyヒルトン那覇首里城,14113,yad340320,00001765,26.220629,127.71078,沖縄県那覇市首里山川町1-132-1,098-886-5454
24,ノボテル沖縄那覇,167519,yad377388,00002558,26.219193,127.70672,沖縄県那覇市松川40番地,098-887-1111
25,COMMUNITY＆SPA那覇セントラルホテル,196,yad353688,00002346,26.218334,127.68884,沖縄県那覇市牧志2-16-36,098-862-6070
31,Villa WHITE（ヴィラホワイト）,,-,00051693,26.64061769225571,127.86781983849917,沖縄県国頭郡本部町瀬底前原３１８２−３,
32,ヒルトン沖縄瀬底リゾート,179299,yad370007,00002795,26.649347,127.85852,沖縄県国頭郡本部町瀬底5750,0570-02-0701
33,瀬底山水,158893,-,00050098,26.64835,127.87314,沖縄県国頭郡本部町瀬底2471-26,080-3842-7748
34,美ら海ビレッジ 瀬底島店,141237,yad338738,00904289,26.687501525522194,127.88577602409072,沖縄県国頭郡本部町豊原２４１−１ 美ら海ビレッジ2号店,080-6489-6575
35,Ｖｉｌｌａ ｄｅ Ｏｃｅａｎ ｂｌｕｅ瀬底倶楽部,137980,-,00050199,26.646797,127.87218,沖縄県国頭郡本部町瀬底2471-10,090-5932-8250
36,ADAN RESORT Hanali village sesokojima,180678,yad302788,00051103,26.645791,127.86306,沖縄県国頭郡本部町瀬底198,0980-43-0073
37,LECEB SESOKO VILLA Hills suite,168497,,00050596,26.64074657784075,127.864438942202,沖縄県国頭郡本部町瀬底前久保原4747番地,0980-43-0343
38,スターライトテラス照家,107694,yad353548,00903096,26.705402,128.01975,沖縄県国頭郡今帰仁村古宇利1210,0980-56-4597
39,プールヴィラ古宇利島 by コルディオスマートリゾート,189256,yad351778,00003218,26.699422,128.01598,沖縄県国頭郡今帰仁村古宇利126-2,098-954-6496
40,One Suite THE GRAND（ワンスイート ザ・グランド）,183032,yad328409,00002924,26.706976,128.01667,沖縄県国頭郡今帰仁村古宇利2451,0980-51-5770
41,ResortVilla古宇利島 Aquablue,147428,yad314368,00904509,26.699499,128.01405,沖縄県国頭郡今帰仁村古宇利1484-4,5036901484
42,One Suite THE TERRACE(ワンスイート ザ・テラス),172742,yad338913,00050745,26.698797,128.0192,沖縄県国頭郡今帰仁村古宇利281,0980-51-5020
43,Lalamare 古宇利,178695,yad356540,00051060,26.6982,128.01466,沖縄県国頭郡今帰仁村古宇利55-1,0980-56-3232
44,ヴィラ恋の島 テラス,181704,yad337165,00911577,26.698686,128.01745,沖縄県国頭郡今帰仁村古宇利215-4,098-963-7007
45,YAWN YARD Kouri Island(sea),192611,yad355420,00051999,26.699822,128.01199,沖縄県国頭郡今帰仁村古宇利1837,0980-56-1128
46,Yuki Suite Kourijima,172758,yad384874,00051002,26.697325,128.01458,沖縄県国頭郡今帰仁村字古宇利33-1,0980-56-5675
47,オーシャンフロントKouriStay(古宇利ステイ),167492,-,00050614,26.69691021929315,128.01811241019993,沖縄県国頭郡今帰仁村古宇利２５１−２,050-1722-9161
48,黍【KIBI】ムカカ ヴィラ 古宇利島 (MUKAKA VILLA・SPA),153099,yad363114,00002292,26.712364363178256,128.01636581521333,沖縄県国頭郡今帰仁村古宇利２５９３−５,0980-52-8020
49,鸛巣 【KOUNOSU】ムカカヴィラ古宇利島 (MUKAKA VILLA・SPA),177513,yad320225,00050886,26.707241851161545,128.0147203948569,沖縄県国頭郡今帰仁村古宇利２１９６,0980-52-8020
50,Resort Villa KAPUKA 古宇利島,188469,yad378853,00051744,26.701063,128.02299,沖縄県国頭郡今帰仁村古宇利597（本館）古宇利353（別館）※地図のピンは本館を示しておりますので別館：LAULEAをご予約のお客様はご注意くださいませ。,0980-56-1317
51,ペンションパシフィカ古宇利,181071,yad354098,-,26.699736937976255,128.01875776417046,沖縄県国頭郡今帰仁村古宇利1005,090-2588-2992
52,たびの邸宅 沖縄今帰仁,167243,yad365372,00050510,26.702412,127.93465,沖縄県国頭郡今帰仁村今泊3543　,050-1808-3727
53,ILUVIO Resort Motobu,196386,yad370540,00052215,26.69314,127.918,沖縄県国頭郡本部町具志堅1993,0980-43-9474
54,ホテルゆがふいんおきなわ,16500,yad344156,00030566,26.593477,127.96521,沖縄県名護市字宮里453-1,0980-53-0031
56,沖縄空手ホテル アイオライト豊見城,192437,yad364368,00918679,26.186412,127.68197,沖縄県豊見城市字豊見城39-5,098-995-6190
57,グリーンリッチホテル沖縄名護,176957,yad345399,00081891,26.58675,127.98374,沖縄県名護市城2-646,0980-51-0111
59,白浜ホテル,147412,yad347690,00904473,26.593921,127.97116,沖縄県名護市宮里1-27-7,080-5169-3289
60,ホテルピースアイランド名護,179380,yad306503,00911038,26.58628,127.98406,沖縄県名護市城2-11-6,0980-43-0781
61,名護ビジネスホテル,52144,yad358568,-,26.589011,127.98549,沖縄県名護市大東1-9-6,0980-54-5557
62,Mr. Kinjo in TOMIGUSUKU,176920,yad330944,00914160,26.165745,127.66861,沖縄県豊見城市座安271-1,098-851-8772
63,ホテルさくらのファミリア名護,167318,yad337147,-,26.580267,127.98369,沖縄県名護市東江5-13-5,0980-53-7070
64,ホテル山田荘,43946,yad328453,00920097,26.589025,127.98585,沖縄県名護市大東1-9-6,0980-52-2272
65,ホテルルートイン名護,29705,yad317948,00080414,26.580345,127.9849,沖縄県名護市東江5-11-3,0980-54-8511
66,かりゆしコンドミニアムリゾート名護 シーサイドハウス,160738,yad317298,,26.57869,127.98367,沖縄県名護市東江5-19-15,098-967-7112
67,スーパーホテル沖縄・名護,69316,yad361520,00905972,26.604576,127.97424,沖縄県名護市宮里1018,0980-50-9000
69,Ao～碧～ホテル,189095,yad389277,00916996,26.605181,127.96712,沖縄県名護市宇茂佐1672,0980-43-9886
70,Lit Hotel NAKIJIN,41003,yad377228,00907218,26.689091,127.96411,沖縄県国頭郡今帰仁村平敷306,0980-56-3005
71,ツリーフルツリーハウスサステイナブルリゾート 沖縄 Treeful,197409,-,00051705,,,,
72,オクマ プライベートビーチ ＆ リゾート,17980,yad329205,00000603,26.735448,128.16004,沖縄県国頭郡国頭村字奥間913,0980-41-2222
73,ペンション与那覇岳,161143,yad380512,00912721,26.729799,128.19033,沖縄県国頭郡国頭村奥間2040-101,090-3794-5919
74,アダ・ガーデンホテル沖縄,108996,yad353552,00902752,26.751341,128.29897,沖縄県国頭郡国頭村安田1285-95,0980-41-7070
75,沖縄ヴィラ サンライズ慶佐次 海風,183693,yad379241,00913481,,,,
76,芭蕉,162863,yad384528,00911753,36.253301,136.37154,石川県加賀市山中温泉上野町ル-15-4,050-3615-3456
77,RYUKYU BREEZE,190775,yad361765,00051960,26.539785,128.09175,沖縄県名護市安部55-1　ＲＹＵＫＹＵ　ＢＲＥＥＺＥ壱Ｎｏ．1、弐Ｎｏ．2、参Ｎｏ．3、肆Ｎｏ．4,070-8354-8291
78,ハレクラニ沖縄,172611,yad312173,00002629,,,,
79,ホテルモントレ沖縄 スパ＆リゾート,141596,yad311816,00001902,26.454017,127.80557,沖縄県国頭郡恩納村字冨着1550-1,098-993-7111
80,カフー リゾート フチャク コンド・ホテル,78239,yad360623,00001519,26.453169,127.80675,沖縄県国頭郡恩納村冨着志利福地原246-1,098-964-7000
81,ルネッサンス リゾート オキナワ,54315,yad327873,00000828,26.420298,127.82005,沖縄県うるま市石川伊波501,098-965-1000
82,リザンシーパークホテル谷茶ベイ,52229,yad315138,00031065,26.463885,127.81813,沖縄県国頭郡恩納村谷茶1496,098-964-6611
83,AQUASENSE Hotel & Resort,183576,yad364693,00002955,26.457458,127.8115,沖縄県国頭郡恩納村字冨着黒崎原86-1,098-987-8031
84,ハイアットリージェンシー 瀬良垣アイランド 沖縄,166320,yad383182,00002526,26.512084,127.86875,沖縄県国頭郡恩納村瀬良垣1108,098-960-4321
85,BEB5沖縄瀬良垣 by 星野リゾート,184015,yad336580,00002989,26.503343,127.86226,沖縄県国頭郡恩納村瀬良垣1860-4,050-3134-8098
86,ホテルパームロイヤルリゾート国際通り,38282,yad351678,00081270,26.216551,127.68981,沖縄県那覇市牧志3-9-10,098-865-5551
87,ホテルJALシティ 那覇,50220,yad319590,00080129,26.215879,127.68605,沖縄県那覇市牧志1-3-70,098-866-2580
88,ホテル コレクティブ,172986,yad382520,00002682,26.215076,127.68542,沖縄県那覇市松尾2-5-7,098-860-8366
89,HOTEL NAHA CITY - kokusai street -,192084,yad348810,00920299,26.214512,127.68346,沖縄県那覇市松尾1-4-5,098-867-7200
90,ホテルグレイスリー那覇,149369,yad306815,00081091,26.214280160489313,127.68262875197914,沖縄県那覇市松尾１丁目３−６,098-867-6111
91,ワイズキャビン&ホテル 那覇国際通り,166949,yad389445,00902390,26.214562,127.68155,沖縄県那覇市久茂地3-9-18,098-869-5137
92,ホテルアベスト那覇国際通り,146927,yad390142,00903501,26.214023,127.68074,沖縄県那覇市久茂地3-1-10,098-943-5800
93,HOTEL THE CUBE 那覇国際通り,158644,yad369635,00903521,26.217229,127.69161,沖縄県那覇市牧志3-13-17,098-861-9900
94,ダイワロイネットホテル那覇国際通り,128440,yad304700,00080624,26.217862,127.6939,沖縄県那覇市安里2-1-1,098-868-9055
95,琉球オリオンホテル 那覇国際通り,2906,yad380764,00081156,26.218645,127.69377,沖縄県那覇市安里1-2-21,098-866-5533
96,ホテル オーシャン那覇国際通り,78126,yad345778,00081090,26.218542602255543,127.69494072499198,沖縄県那覇市安里２丁目４−８,098-863-2288
97,ヒューイットリゾート那覇,181785,yad300680,00002868,26.218245,127.69593,沖縄県那覇市安里2丁目5番16号,098-943-8325
98,Mr. Kinjo in Sakaemachi,168288,yad308239,00904421,26.21769,127.69712,沖縄県那覇市安里382,098-987-6671
99,"HOTEL STRATA NAHA ,ホテル ストレータ 那覇",178292,yad328599,00082123,26.219125026294254,127.68432822129527,沖縄県那覇市牧志１丁目１９−８,098-860-7400
100,JR九州ホテル ブラッサム那覇,160939,yad348492,00081295,26.217137,127.68775,沖縄県那覇市牧志2丁目16番１号,098-861-8700
101,"ハイアットリージェンシー那覇沖縄,Hyatt Regency Naha, Okinawa",148000,yad373185,00002142,26.214686059716776,127.68982535013066,沖縄県那覇市牧志３丁目６−２０,098-866-8888
102,沖縄ナハナ・ホテル＆スパ,67389,yad335064,00080127,26.21444,127.67653,沖縄県那覇市久米2-1-5,098-866-0787
103,リッチモンドホテル 那覇久茂地,19934,yad355232,00080019,26.220387,127.68287,沖縄県那覇市久茂地2-23-12,098-869-0077
104,アルモントホテル那覇県庁前,149360,yad378968,00081650,26.213426,127.67816,沖縄県那覇市久茂地1-3-5,098-866-3811
105,ホテルアートステイ那覇国際通り,73895,yad352536,00081297,26.216845,127.68748,沖縄県那覇市牧志1-3-43,050-1792-5506
106,那覇東急REIホテル,76923,yad394225,00080509,26.209779,127.67734,沖縄県那覇市旭町116-37（「カフーナ旭橋」内、自治会館隣）,098-869-0109
107,BATON SUITE 沖縄古宇利島,192961,yad300310,00003314,26.699161,128.02053,沖縄県国頭郡今帰仁村古宇利480-2,0980-56-5500
108,hotel cava（ホテルカヴァ）,108781,yad366068,00050421,26.711987,128.01583,沖縄県国頭郡今帰仁村古宇利2593‐2,050-3748-7216
109,ホテル パームステイ古宇利,147881,yad371142,-,26.711893,128.01585,沖縄県国頭郡今帰仁村字古宇利2593-1,0980-56-5670
110,シーブリーズ古宇利,168709,yad364930,00915665,26.699005,128.01826,沖縄県国頭郡今帰仁村古宇利220,0980-56-1335
111,ラ・カシータ古宇利島,153394,-,00030596,26.71236273951552,128.01615740966622,沖縄県国頭郡今帰仁村古宇利２５９３−４,050-3635-5598
112,サンセットビーチホテル,166371,yad396231,00031037,26.314772,127.75558,沖縄県中頭郡北谷町美浜8-11,098-926-1005
113,ビーチフロントタワーミハマ,160954,yad341488,00905490,26.308245,127.76054,沖縄県中頭郡北谷町北谷１丁目13－６,098-988-5553
114,テラスガーデン美浜リゾート,50896,yad310093,00030133,26.317547,127.75975,沖縄県中頭郡北谷町美浜2-5-18,098-961-6208
115,ブルーステーキワンダー沖縄北谷,181512,yad389916,00082213,26.329730603561643,127.74748470965378,沖縄県中頭郡北谷町浜川１１７−２６,
116,シーサイドホテル ザ・ビーチ,28029,yad338328,00030414,26.331928,127.74341,沖縄県中頭郡北谷町宮城3-134,098-926-2674
117,アクアパレス北谷 by コルディオ,177948,yad362979,00051057,26.320152,127.76099,沖縄県中頭郡北谷町桑江一丁目9番37号,098-970-8517
118,ザ・サンセットビレッジ沖縄北谷,166300,yad394768,00050667,26.318386,127.77584,沖縄県中頭郡北谷町吉原392-8,098-921-7012
119,Mr.KINJO PREMIUM TERRACE CHATAN,158675,-,00905148,26.31903,127.7605,沖縄県中頭郡北谷町桑江1-13-7,098-923-2688
120,Mr.KINJO in GRAND BLUE CHATAN,179593,yad365398,00914161,26.325171,127.75573,沖縄県中頭郡北谷町伊平88,098-923-2332
121,アラマハイナ コンドホテル,166935,yad367784,00002565,26.682657,127.88326,沖縄県国頭郡本部町山川1421-1,0980-51-7800
122,マリンピアザオキナワ,14058,yad316128,00907531,26.676777,127.88518,沖縄県国頭郡本部町浜元410,0980-48-3000
123,Sheraton Okinawa Sunmarina Resort,13554,yad314623,00002311,26.46128068352169,127.81183006732901,沖縄県国頭郡恩納村字冨着６６−１,098-965-2222
124,ANAインターコンチネンタル万座ビーチリゾート,16123,yad381702,00000550,26.508337,127.85793,沖縄県国頭郡恩納村瀬良垣2260,098-966-1211
125,パレスインムーンビーチ,8525,yad374395,00904123,26.450906,127.80327,沖縄県国頭郡恩納村前兼久1203,098-964-3512
126,ホテルみゆきビーチ,17845,yad395056,00900737,26.511339198300135,127.89189948082408,沖縄県国頭郡恩納村安富祖１５８３−２,098-967-8031
127,東横INN那覇旭橋駅前,52641,yad306413,00909969,26.214195,127.67603,沖縄県那覇市久米2-1-20,098-951-1045
128,コンフォートホテル那覇県庁前,73870,yad362445,00080218,26.213559,127.67776,沖縄県那覇市久茂地1-3-11,098-941-7311
129,ホテルリゾネックス名護,16354,yad339888,00030796,26.6037,127.93675,沖縄県名護市字山入端247-1,0980-53-8021
130,ホテルアクアチッタナハ,163087,yad304884,00081394,26.222231,127.68329,沖縄県那覇市前島3-2-20,050-1721-3341
131,琉球ホテル＆リゾート 名城ビーチ,183412,yad364143,00002956,26.10053,127.65943,沖縄県糸満市名城963番地,098-997-5550
132,ホテル百名伽藍,187553,yad385690,00001824,26.133043582780513,127.78528646731834,沖縄県南城市玉城百名 山下原 1299-1,098-949-1011
133,HIYORIオーシャンリゾート沖縄,180687,yad395499,00002828,26.441968,127.80547,沖縄県国頭郡恩納村仲泊1055-1,098-965-1600
134,伊計島温泉 AJリゾートアイランド伊計島,145332,yad354596,00030410,26.397207,128.002,沖縄県うるま市与那城伊計1286,098-983-1230
135,オキナワ グランメールリゾート,28400,yad371622,00030197,26.315079,127.81137,沖縄県沖縄市与儀2丁目8番1号,098-931-1500
136,ウェルネスリゾート沖縄 ユインチホテル南城,74545,yad396620,-,26.16529568305277,127.7693496096485,沖縄県南城市佐敷新里１６８８,098-947-0111
137,プチリゾート古宇利島,139847,yad311757,-,26.697486,128.01796,沖縄県国頭郡今帰仁村古宇利192,0980-56-1566
138,ベストウェスタン沖縄恩納ビーチ,107650,yad356024,00030136,26.432043,127.7587,沖縄県国頭郡恩納村真栄田1888,098-964-1130
139,ザ シギラ,188196,-,00001905,24.720798,125.33908,沖縄県宮古島市上野新里1405-201,0980-74-7400
140,シギラベイサイドスイート アラマンダ,56662,yad356578,00000998,24.724325,125.32194,沖縄県宮古島市上野字宮国975-6,0980-79-6100
141,ホテル シギラミラージュ ベイサイド,168769,yad330808,00002622,24.720798,125.33908,沖縄県宮古島市上野新里1405-201,0980-74-7400
142,ホテル シギラミラージュ ビーチフロント,188998,yad385325,00003183,24.718903,125.33919,沖縄県宮古島市上野字新里1405-271,0980-74-7600
143,ホットクロスポイント サンタモニカ,164696,yad353092,00031011,24.720481,125.33326,沖縄県宮古島市上野宮国974-1,0980-74-7300
144,ウェルネスヴィラ ブリッサ,56663,yad375822,00030993,24.716667,125.31918,沖縄県宮古島市上野宮国746-20,0980-76-3870
145,ヴィラブリゾート,49245,yad347077,00001077,24.808622,125.19135,沖縄県宮古島市伊良部字伊良部817,0980-78-6777
146,イラフ SUI ラグジュアリーコレクションホテル 沖縄宮古,168329,yad377836,00002573,24.809502983095914,125.18867912309989,沖縄県宮古島市伊良部伊良部８１８−５,0980-74-5511
147,ブルーオーシャン ホテル＆リゾート 宮古島,183102,yad370378,00003017,24.810533,125.2198,沖縄県宮古島市伊良部字池間添1101-1,0980-79-7971
148,ウォーターマークホテル沖縄 宮古島,184118,yad379336,00031122,24.837254,125.15814,沖縄県宮古島市伊良部佐和田前原1725,0980-78-5100
149,宮古島東急ホテル＆リゾーツ,540,yad347149,00000322,24.73968413398482,125.26226585640846,沖縄県宮古島市下地与那覇９１４,0980-76-2109
150,マリンロッジ・マレア宮古島,32480,yad308167,00912737,24.743281711631717,125.26099685280838,沖縄県宮古島市下地与那覇８４７−３,0980-76-3850
151,HOTEL LOCUS,164915,yad335040,00902590,24.804898292504866,125.27415436727708,沖縄県宮古島市平良下里３３８−４０,0980-79-0240
152,ホテルアトールエメラルド宮古島,8728,yad362861,00901480,24.80561,125.27473,沖縄県宮古島市平良字下里108-7,0980-73-9800
153,スマイルホテル宮古島,196058,yad336568,00920224,24.80471,125.28112,沖縄県宮古島市平良字西里225,0980-66-0111
154,宮古島来間リゾート シーウッドホテル,179123,yad389662,00002725,24.729683480759398,125.24365535193297,沖縄県宮古島市下地来間４８４−７,0980-74-7888
155,ヒルトン沖縄宮古島リゾート,187475,yad353775,00003061,24.801282,125.25913,沖縄県宮古島市平良久貝550-7,0980-75-3330
156,ホテル・トリフィート宮古島リゾート,181361,yad384013,00082103,24.778724,125.30138,沖縄県宮古島市平良下里2422-1,0980-75-7700
157,ホテルブリーズベイマリーナ,56659,yad334696,00000658,24.719756,125.32515,沖縄県宮古島市上野宮国784-1,0980-76-3000
158,ホテルピースアイランド宮古島,106042,yad304294,00901730,24.803002,125.28262,沖縄県宮古島市平良西里281-1,0980-72-1101
159,ホテルピースアイランド宮古島市役所通り,147385,yad326451,00901487,24.804666,125.28206,沖縄県宮古島市平良西里328,0980-79-5071
160,ホテルキャッスルヴィレッジ宮古島,136950,-,-,24.770317,125.34112,沖縄県宮古島市平良東仲宗根添1753-137,0980-74-2100
161,Palm Springs Miyakojima Resort,168635,yad383815,00906628,24.799241488207574,125.2692539161212,"沖縄県宮古島市平良久貝６５４−２３,Miyakojima-shi Hirara Kugai 654-23",
162,ヴィラ アマルフィ パームスプリングス宮古島リゾート,187383,yad379751,00914629,24.798533,125.26835,沖縄県宮古島市平良字久貝650-5,050-2018-7883
163,ヴィラマリブ パームスプリングス宮古島リゾート,187334,yad375055,00914431,24.798478566091404,125.26928925248525,沖縄県宮古島市平良久貝６５４−６７,050-2018-7883
164,宮古島ゲストハウスumioto,147098,yad393884,00901676,24.83439815878206,125.28754423714285,沖縄県宮古島市平良荷川取1234番地1,0980-79-5011
165,ひららの湯 たびのホテルリット宮古島,182136,yad393088,00082219,24.80144766025942,125.28369432364951,沖縄県宮古島市平良西里５９６,0980-75-3100
166,スーパーホテル那覇・新都心,70884,yad327902,00905969,26.22587643609191,127.69801651018902,沖縄県那覇市おもろまち４丁目１６−２７,098-861-9000
167,備瀬の宿 結,147140,-,-,26.702625,127.88198,沖縄県国頭郡本部町字備瀬311番地　　,090-7983-8165
168,ADANRESORT LANA Villa Suite,184401,yad343364,00051560,26.691156,127.88174,沖縄県国頭郡本部町石川434,0980-43-0073
169,コンドミニアムホテル しまんちゅクラブ,80831,yad344918,00902557,26.523645,127.92657,沖縄県国頭郡恩納村名嘉真2288-162,098-967-8281
170,星のテラスもとぶ山里,149306,yad378600,00002247,26.66669,127.90066,沖縄県国頭郡本部町山里1170-1,0980-47-7777
171,ホテルオーシャンズ今帰仁,151103,yad395328,00914675,26.697055,127.97341,沖縄県国頭郡今帰仁村仲宗根985,0980-56-1633
172,ANAインターコンチネンタル石垣リゾート,1973,yad315164,00000377,24.334844,124.18608,沖縄県石垣市真栄里354-1,0980-88-7111
173,フサキビーチリゾート ホテル＆ヴィラズ,38599,yad320535,00002667,24.36875,124.113,沖縄県石垣市新川1625番地,0980-88-7000
174,南の美ら花 ホテルミヤヒラ,4653,yad313960,00081099,24.338337,124.15553,沖縄県石垣市美崎町4-9,0570-00-6112
175,THIRD ISHIGAKIGAMI,182607,yad372614,00002834,24.33835413733586,124.15557075247537,沖縄県石垣市美崎町４−７,0980-83-6366
176,石垣島グランピング リゾート ヨーコブシ,75253,yad313888,00002329,24.488706362130554,124.27553481015,沖縄県石垣市伊原間２−７３７,0980-89-2345
177,ベッセルホテル石垣島,39430,yad357658,00080894,24.339991459747974,124.15147172363946,沖縄県石垣市浜崎町１丁目２−７,0980-88-0101
178,南十字星リゾート 石垣島 白保ノスタルジーガーデン,168229,yad367268,00916272,24.35324,124.24019,沖縄県石垣市白保85-2,0980-87-0791
179,SHIRAHO BEACHSIDE,187173,yad366523,00919525,24.354807,124.24473,沖縄県石垣市白保2106-6,050-8894-9014
180,星野リゾート 西表島ホテル,177935,yad372796,00002684,24.421369,123.77499,沖縄県八重山郡竹富町上原2-2,050-3134-8094
181,ラ・ティーダ西表リゾート,12527,-,00920920,24.25733223650243,123.86578665247346,沖縄県八重山郡竹富町南風見５０８−２０５,
182,星のや竹富島,172993,-,00003309,24.321744,124.09677,沖縄県八重山郡竹富町竹富,050-3134-8091
183,ホテルピースアイランド竹富島,138074,yad361618,00907610,24.332962,124.0839,沖縄県八重山郡竹富町竹富112-1,0980-84-5955
184,はいむるぶし,53418,yad366784,00001271,24.328880461220656,123.98959614048273,沖縄県八重山郡竹富町小浜２９３０−１,0980-85-3111
185,星野リゾート リゾナーレ小浜島,178403,yad331004,00002685,24.332932,123.99691,沖縄県八重山郡竹富町小浜2954,050-3134-8093
186,グレイス那覇,51874,yad309289,00915330,26.21181711,127.6818561,沖縄県那覇市松尾1-19-29　ＴＭビル2階受付,098-863-2752
187,ホテルモントレ　ラ・スール那覇（２０２６年４月３日オープン）,197858,yad383901,00003437,26.2135278,127.6811111,沖縄県那覇市松尾1-1-2,098-869-7111
188,ホテルグランコンソルト那覇,183095,yad397730,00082357,26.21238991,127.6823056,沖縄県那覇市松尾1-18-25,098-860-5577
189,Ｍｒ．ＫＩＮＪＯ　ｉｎ　ＭＡＴＳＵＯ,167690,yad383990,00905125,26.21187444,127.6828545,沖縄県那覇市松尾1-17-25,098-917-2067
190,Ｂｅｓｔ　ｅｖｅｒ　ｈｏｔｅｌ,182395,yad385138,00915364,26.2126261,127.6784558,沖縄県那覇市泉崎1-9-13,098-911-5077
191,さくらや国際通り,179822,-,-,26.2138764,127.6828277,沖縄県那覇市松尾1-3-16　2F,090-9078-1990
192,ホテルグレイスリー那覇,149369,yad306815,00081091,26.21427765,127.6825887,沖縄県那覇市松尾1-3-6,098-867-6111
193,Ｎｅｗ　Ｎｏｒｍａｌ　Ｃｏｎｄｏ　ｉｎ　県庁南口,182380,yad374652,00920486,26.2102441,127.6822461,沖縄県那覇市泉崎2-10-6,092-292-2431
194,メゾン津波３０２　＾,190283,yad364789,,26.2098866,127.6811511,沖縄県那覇市泉崎2-14-5　3階　メゾン津波302号,090-2969-0478
195,ホテルルートイン那覇旭橋駅東,15424,yad335822,00901469,26.21066719,127.6784065,沖縄県那覇市泉崎1-19-12,050-1722-5750
196,だるまマンション４０１　＾,171219,-,-,26.2135832,127.6778827,沖縄県那覇市久茂地1-3-18　だるまマンション,080-3592-6689
197,ザ　ロイヤルパークホテル　アイコニック　那覇（２０２６年１月３０日オープン）,196410,yad376067,00003353,26.2149435,127.6791502,沖縄県那覇市久茂地1-11-1 琉球銀行本店ビル 7階,098-988-6661
198,サンチャゴゲストハウス那覇,172613,yad361002,00906174,26.2109648,127.6779658,沖縄県那覇市泉崎1-18-3,080-4437-8570
199,ゆかるひ前島４Ｆ　＾,170894,-,-,26.2149351,127.682928,沖縄県那覇市前島2-15-31　ゆかるひ前島,080-4086-2001
200,かりゆしコンドミニアムリゾート那覇　グランステイ旭橋駅前,179591,yad308165,00051139,26.21121396,127.6776697,沖縄県那覇市泉崎1‐17‐2,098-967-7112
201,Ｖｉｌｌａ　Ｉｚｕｍｉｚａｋｉ（ヴィラ泉崎）,158476,yad309220,-,26.2126401,127.6772903,沖縄県那覇市泉崎1-14-10,098-894-3597
202,ＫＡＲＩＹＵＳＨＩ　ＬＣＨ．Ｉｚｕｍｉｚａｋｉ　県庁前,144936,yad327985,00080969,26.213314,127.677361,沖縄県那覇市泉崎1-11-8,098-866-1200
203,ＴＨＥ　ＫＩＴＣＨＥＮ　ＨＯＳＴＥＬ　ＡＯ　ザ　キッチンホステル　アオ,183017,yad353906,00915881,26.2135628,127.6774008,沖縄県那覇市久茂地1-4-1,098-863-8156
204,Ｅｎａｇｉｃ沖縄国際プラザホテル（旧　ホテル国際プラザ）,28123,yad326987,00908293,26.21471406,127.6836476,沖縄県那覇市松尾1-4-10,098-862-4243
205,コンドミニアムＨＡＲＵ　那覇県庁前,181788,-,-,26.2138872,127.6775082,沖縄県那覇市久茂地1-5-1　大宮ビル2Ｆ,050-3138-3457
206,ゲストハウス　海風,158885,yad302417,00919231,26.21462236,127.6780369,沖縄県那覇市久茂地1-8-1,098-917-1298
207,レジデンス花崎,183311,-,-,26.2122141,127.6770335,沖縄県那覇市泉崎1-14-18,098-869-2113
208,沖縄かりゆしリゾートエグゼス那覇＜県庁前＞,171943,yad385020,00002611,26.21325187,127.6770782,沖縄県那覇市泉崎1-11-5,098-860-3300
209,ＧＵＥＳＴＨＯＵＳＥ　ＫＡＬＡ,151408,-,-,26.2147567,127.6839619,"沖縄県那覇市松尾2-1-1　3,4F",098-927-5709
210,ホテル　サン沖縄,7766,-,00901557,26.21418625,127.6773843,沖縄県那覇市久茂地1-5-15,098-866-1111
211,テラスリゾート　新都心,153127,yad387472,00909845,26.23560343,127.6877814,沖縄県那覇市安謝2-5-4,0120-330-885
212,Ｉｎｆｉｎｉｔｙ　Ｒｅｓｏｒｔ　ＡＪＹＡ　＾,175723,-,-,26.2399183,127.6943791,沖縄県那覇市安謝617-117,070-5410-1526
213,ＢｉＢｉ　Ｈｏｔｅｌ　コスモス新都心,188136,yad351611,00915034,26.2298578,127.689211,沖縄県那覇市上之屋1-18-35,098-943-2665
214,ＧＲＡＮＤ　ＨＯＴＥＬ・ＳＨＩＳＡ　Ｓｔ．ＯＫＩＮＡＷＡ（グランドホテル・シーサーストリート沖縄）,196752,,00920848,26.2401987,127.6963067,沖縄県浦添市勢理客1-18-2,06-7167-6048
215,ＨＯＴＥＬ　ＯＭＯＲＯ５８,181036,-,-,26.2338093,127.6860483,沖縄県那覇市天久2-18-14,080-9854-4473
216,ＩＮＦＩＮＩＴＹ　ＨＯＴＥＬ　勢理客,184710,-,00051106,26.24102552,127.6949972,沖縄県浦添市勢理客1-21-19,098-943-5727
217,ピースリーイン新都心,39229,-,-,26.23303995,127.6857943,沖縄県那覇市天久2-6-14,098-869-2113
218,グランスイート新都心,181743,yad330260,00918028,26.2291644,127.6987769,沖縄県那覇市銘苅1-3-33,090-9485-1705
219,マンゴーリゾート沖縄那覇,179596,yad386891,00918029,26.23793649,127.6857876,沖縄県那覇市天久802-57,098-943-9449
220,HOTEL　COCO新都心,72784,yad383513,-,26.22851839,127.7000043,沖縄県那覇市銘苅1-2-10,098-863-7500
221,東横ＩＮＮ那覇新都心おもろまち,52723,yad397359,00910088,26.22545752,127.6938827,沖縄県那覇市おもろまち1-2-27,098-863-1045
222,ＮＡＨＡ新都心ＨＯＴＥＬ,183573,yad379905,00913444,26.22532231,127.6935404,沖縄県那覇市おもろまち1-2-25,098-894-8558
223,ＨＯＴＥＬ　ＳｔｏＲＫ　那覇新都心,73885,yad353282,00902314,26.22531306,127.6921495,沖縄県那覇市おもろまち2-6-40,098-941-2920
224,スーパーホテル那覇・新都心,70884,yad327902,00905969,26.22585475,127.6979823,沖縄県那覇市おもろまち4-16-27,098-861-9000
225,リブレガーデンホテル,40689,yad397977,00908383,26.22549367,127.697424,沖縄県那覇市おもろまち4-17-27,098-869-3333
226,アルモントホテル那覇おもろまち,40768,yad324287,00080459,26.22510481,127.6964574,沖縄県那覇市おもろまち4-3-8,098-860-6611
227,ゲストハウス　Ｓｅａ〜ＰａっＰａ（女性専用）,49384,yad325384,00909655,26.22731832,127.6853528,沖縄県那覇市泊3-5-11,098-863-4424
228,Ｋ　ｈｏｕｓｅ（沖縄那覇曙ハウス）,181877,-,-,26.2356904,127.682188,沖縄県那覇市曙1-10-3-2,080-9649-2239
229,Ｍｃｉｔｙ　ｉｎ　Ｆｕｒｕｊｉｍａ,182111,yad361301,-,26.2314914,127.7040985,沖縄県那覇市古島1丁目23-1,06-7713-1349
230,ＧＵＥＳＴ　ＨＯＵＳＥ　ＩＮＦＩＮＩＴＹ　〜ＡＫＥＢＯＮＯ〜,184711,-,-,26.2327706,127.6819688,沖縄県那覇市曙1-6-33.  5F,098-943-5727
231,ＧＵＥＳＴ　ＨＯＵＳＥ　ＩＮＦＩＮＩＴＹ　【５－Ａ】　＾,175748,-,-,26.2327256,127.6819552,沖縄県那覇市曙1-6-33　愛和マンション,070-5410-1526
232,ＧＵＥＳＴ　ＨＯＵＳＥ　ＩＮＦＩＮＩＴＹ　【５－Ｂ】　＾,175750,-,-,26.2327256,127.6819552,沖縄県那覇市曙1-6-33　愛和マンション,070-5410-1526
233,ＧＵＥＳＴ　ＨＯＵＳＥ　ＩＮＦＩＮＩＴＹ　【５－Ｃ】　＾,175751,-,-,26.2327256,127.6819552,沖縄県那覇市曙1-6-33　愛和マンション,070-5410-1526
234,ＧＵＥＳＴ　ＨＯＵＳＥ　ＩＮＦＩＮＩＴＹ　【５－Ｄ】　＾,175753,-,-,26.2327256,127.6819552,沖縄県那覇市曙1-6-33　愛和マンション,070-5410-1526
235,ダイワロイネットホテル那覇おもろまちＰＲＥＭＩＥＲ,188000,yad325896,00082526,26.22419502,127.6954129,沖縄県那覇市おもろまち4-2-14,098-862-5055
236,ザ・ナハテラス,5648,yad332964,00000205,26.22384562,127.6918129,沖縄県那覇市おもろまち2-14-1,098-864-1111
237,アクロスおもろまち那覇,167200,yad375020,-,26.22574785,127.7002129,沖縄県那覇市真嘉比2-5-27,098-884-7865
238,シティーフロント春海ユースホステル,67209,-,-,26.22483528,127.6876082,沖縄県那覇市泊2-22-10,098-867-3218
239,ダイワロイネットホテル那覇おもろまち,134763,yad363416,00080764,26.22326054,127.6953298,沖縄県那覇市おもろまち1-1-12,098-862-4555
240,ＡＬＢＥＲＧＯーＰＩＮＯ　泊　ＴＯＭＡＲＩ,193031,-,-,26.2253674,127.685747,沖縄県那覇市泊2-4-5,050-1790-1618
241,ゲストハウス　いちゃりばちょーでー,165009,yad369000,00909089,26.239079,127.6818434,沖縄県那覇市曙2-22-3 2階,989436711
242,Ａｋｅｂｏｎｏ　Ｈｏｕｓｅ,181822,-,-,26.2383664,127.6811437,沖縄県那覇市曙1-16-16,050-1180-4542
243,ＨＯＴＥＬ　Ｙ’ＲＩＳＥ　ＴＯ　ＵＲＡＳＯＥ,183683,yad358309,00914976,26.2431781,127.7019403,沖縄県浦添市宮城5-10-2,098-988-1952
244,ＨＯＴＥＬ　ＣＯＺＹ　ＳＴＡＹ　ＩＮ　那覇曙,168466,yad325632,00910611,26.2424927,127.6835681,沖縄県那覇市曙3-15-12,098-988-1952
245,ブランシエラ那覇曙プレミスト（新築・駐車場１台付き）／民泊,185948,-,-,26.242321,127.6831395,沖縄県那覇市曙3-16-16　ブランシエラ那覇曙プレミスト1103,050-5444-6620
246,Ｏｋｉｎａｗａ　Ｒｅｓｏｒｔ　ーＡｋｅｂｏｎｏ　Ｅｅｓｔー／民泊,194918,-,-,26.2424792,127.6832642,沖縄県那覇市曙3-16-16　ブランシエラ那覇曙プレミスト,070-5410-1526
247,ブランシエラ那覇曙プレミスト／民泊,194227,-,-,26.2425459,127.6831823,沖縄県那覇市曙3-16-16　1202．1206．１3０２．１3０3．１3０4．１3０9号室　Ｂｒａｎｃｉｅｒａ　Ｎａｈａ　Ａｋｅｂｏｎｏ　Ｐｒｅｍｉｓｔ,06-7167-6623
248,ブランシエラ那覇曙プレミスト　（１２０６号室）／民泊,194287,-,-,26.2425459,127.6831823,沖縄県那覇市曙3-16-16　1206　Ｂｒａｎｃｉｅｒａ　Ｎａｈａ　Ａｋｅｂｏｎｏ　Ｐｒｅｍｉｓｔ　（1206）,06-7167-6623
249,ブランシエラ那覇曙プレミスト　（Ｒ６７）／民泊,194288,-,-,26.2425459,127.6831823,沖縄県那覇市曙3-16-16　１3０２　Ｂｒａｎｃｉｅｒａ　Ｎａｈａ　Ａｋｅｂｏｎｏ　Ｐｒｅｍｉｓｔ　（Ｒ67）,06-7167-6623
250,ブランシエラ那覇曙プレミスト　（Ｒ６８）／民泊,194289,-,-,26.2425459,127.6831823,沖縄県那覇市曙3-16-16　１3０3　Ｂｒａｎｃｉｅｒａ　Ｎａｈａ　Ａｋｅｂｏｎｏ　Ｐｒｅｍｉｓｔ　（Ｒ68）,06-7167-6623
251,ブランシエラ那覇曙プレミスト　（Ｒ６９）／民泊,194290,-,-,26.2425459,127.6831823,沖縄県那覇市曙3-16-16　１3０４　Ｂｒａｎｃｉｅｒａ　Ｎａｈａ　Ａｋｅｂｏｎｏ　Ｐｒｅｍｉｓｔ　（Ｒ69）,06-7167-6623
252,ブランシエラ那覇曙プレミスト　（Ｒ７８）／民泊,194291,-,-,26.2425459,127.6831823,沖縄県那覇市曙3-16-16　１3０９　Ｂｒａｎｃｉｅｒａ　Ｎａｈａ　Ａｋｅｂｏｎｏ　Ｐｒｅｍｉｓｔ　（Ｒ78）,06-7167-6623
253,ブランシエラ那覇曙プレミスト／民泊,186102,-,-,26.24263976,127.6832726,沖縄県那覇市曙3-16-16　Ｂｌａｎｃｉｅｒａ　Ｎａｈａ　Ａｋｅｂｏｎｏ　Ｐｒｅｍｉｓｔ,075-585-4279
254,ジャパビスタ　カサデボス／民泊,190390,-,-,26.2425706,127.6831776,沖縄県那覇市曙3-16-16　ブランシエラ那覇曙プレミスト,050-3628-1830
255,Ｂ＆Ｂ　４　Ｒｏｏｍｓ,148985,yad364520,-,26.2222949,127.6910662,沖縄県那覇市泊1-27-8,098-988-0251
256,ブランシエラ那覇曙プレミスト１３０９／民泊,190303,-,-,26.24271495,127.6831615,沖縄県那覇市曙3-16-16　ブランシエラ那覇曙プレミスト,050-5444-6620
257,東横ＩＮＮ那覇おもろまち駅前,78191,yad365226,00910087,26.22222735,127.6973657,沖縄県那覇市おもろまち1-6-6,098-862-1045
258,スマートコンド泊,167250,yad373824,00050692,26.2233474,127.6863054,沖縄県那覇市泊2-1-9,098-988-3771
259,ＭｙＰｌａｃｅ,149267,yad301052,-,26.22675928,127.6816839,沖縄県那覇市泊3-1-8,080-8569-2887
260,ホテルリブマックスＢＵＤＧＥＴ那覇泊港,147591,,00900362,26.2236057,127.6853388,沖縄県那覇市前島2-23-12,098-868-4100
261,Ｇ‐ＲＡＴＩＳ　ＯＭＯＲＯＭＡＣＨＩ（グラティスオモロマチ）,165197,yad332168,00902137,26.22265228,127.6996164,沖縄県那覇市真嘉比1-4-10,098-989-7617
262,Ｆｕｒｕｊｉｍａ　Ｈｏｕｓｅ　＾,175681,,,26.2296496,127.7068972,沖縄県那覇市古島2-26-9,080-9852-8558
263,レイサー沖縄那覇泊ふ頭,193522,yad379492,00919886,26.223327,127.684974,沖縄県那覇市前島2-22-12,03-6910-2908
264,ｎａｈａ－ｄｅ．ａｓｏｂｕ,182548,yad301836,00915673,26.220973,127.6928662,沖縄県那覇市字安里80-7,080-6483-9673
265,アーバンコンドミニアム和風邸おもろまち駅前店,182314,,,26.2220806,127.6996377,沖縄県那覇市真嘉比1-21-24,098-959-2303
266,サウスゲートホテル沖縄（2026年5月グランドオープン）,197228,yad341776,00003327,26.2236035,127.6837669,沖縄県那覇市前島3-25-1（泊ふ頭旅客ターミナルビル内）,098-861-4152
267,ホテルクオーレ国際通り那覇,177720,yad324589,00920419,26.22253562,127.6854996,沖縄県那覇市前島2-18-12,090-9560-8324
268,Ｍｃｉｔｙ　ｉｎ　Ｍａｅｊｉｍａ,182112,yad380876,,26.2227708,127.6845731,沖縄県那覇市前島2-19-3,06-7713-1349
269,サンプラザホテル＜沖縄県＞,18195,yad347245,00900734,26.2203756,127.6912247,沖縄県那覇市安里138,098-866-0920
270,ヴィラポート前島,193426,,,26.2219389,127.6857695,沖縄県那覇市前島2-15-33,050-8886-2364
271,スマイルホテル沖縄那覇,67438,yad302732,00901212,26.22311874,127.683703,沖縄県那覇市前島3-24-1,098-866-8100
272,Ｍｒ．ＫＩＮＪＯｉｎＡＳＡＴＯ,167205,yad302854,00905131,26.22020962,127.6928921,沖縄県那覇市安里63-3,098-943-6276
273,プチスイート崇元寺石門,181247,yad386714,00913719,26.22035266,127.6901881,沖縄県那覇市泊1-8-1,----------
274,ハレアカラ,188052,,,26.2199853,127.6937974,沖縄県那覇市安里49,050-1721-8798
275,キッズワンダーランド　安里店　＾,194568,,,26.2199876,127.696141,沖縄県那覇市安里3-12-46　キッズワンダーランド　安里店,080-9423-2729
276,【Ｎｅｗ　Ｏｐｅｎ　Ｓａｌｅ　】１Ｒ２８平米　Ｗｉ－Ｆｉ完備　国際通り徒歩５分好立地　ＭＫ４１６　＾,189360,,,26.2197742,127.6916888,沖縄県那覇市安里1-8-20号　2階～5階　ピースリー安里,080-3592-6689
277,Ｎ’ｓ　Ｐｏｒｔｓｓｉｄｅ泊　＾,195349,,,26.2226017,127.683272,沖縄県那覇市前島3-2-11　Ns Portsside泊,050-1721-4419
278,ｍａｅｊｉｍａ　Ｈｏｔｅｌ　〜那覇前島ホテル　コンセプトホテル〜,187361,yad336932,,26.22314763,127.6823331,沖縄県那覇市前島3-13-2,080-3995-1302
279,沖縄オリエンタルホテル,182630,yad303813,00000958,26.22328814,127.6821031,沖縄県那覇市前島3-13-16,098-868-0883
280,ホテルルートイン那覇泊港,56974,yad360992,00080375,26.22198915,127.6836992,沖縄県那覇市前島2-12-5,050-1725-9716
281,シティコンド　ジョイントホーム那覇　ｂｙ　コルディオプレミアム,176731,yad390036,00918351,26.2214954,127.6844832,沖縄県那覇市前島2-10-17,098-970-8514
282,ゲストハウスⅡ六丸館,187391,yad374566,00914679,26.221751,127.6840225,沖縄県那覇市前島2-11-6 2F,098-862-7765
283,ホテルピースアイランド那覇,1396,yad318466,00907677,26.22354922,127.6815199,沖縄県那覇市前島3-23-1,098-917-2626
284,コンドミニアム　ｆｅｌｉｃｉｔａ　那覇,165106,yad346088,,26.22268451,127.6825277,沖縄県那覇市前島3-8-9,098-894-8986
285,ホテル　アンテルーム那覇,177913,yad326306,00082122,26.22572176,127.6793533,沖縄県那覇市前島3丁目27番11号,098-860-5151
286,ゆくれば前島ホテル,183089,yad306781,,26.2229969,127.6820383,沖縄県那覇市前島3-12-14,098-917-4908
287,Ｓｈｅｌｌ　Ｈｏｕｓｅ,129398,,,26.21916096,127.6944522,沖縄県那覇市安里1-4-8,098-864-0144
288,パラダイスイン安里　＾,185312,,,26.2191233,127.6940467,沖縄県那覇市安里1-5-3　仲間ビル　2階　3階,090-6867-3473
289,Ｍｒ．ＫＩＮＪＯ　ｉｎ　Ｎｉｃａ’ｓ牧志駅　（旧：ＭＩＥＢＡＳＨＩ）,165990,yad352766,00905129,26.2195993,127.6882856,沖縄県那覇市牧志2丁目21番15号,098-917-2416
290,わらゆんＳＯ〜Ｐｏｒｔ　Ｃｉｔｙ　Ｍａｙ〜,181762,,,26.2229933,127.6816332,沖縄県那覇市前島3-15-15,080-2359-0369
291,ホテルアーバンシー３牧志,179082,,,26.2197268,127.6875545,沖縄県那覇市牧志2-19-13　2．3．4階,050-5482-3712
292,とまりんハウス,182045,,,26.2243964,127.679903,沖縄県那覇市若狭3-24-3,050-3749-6060
293,ホテル　ホワイトビーチ,72731,,,26.22295205,127.6813032,沖縄県那覇市前島3-15-5,098-979-9222
294,Ｈｏｔｅｌ　Ｖｉｖｉａｎａ,197096,yad396716,00050799,26.2195185,127.6875965,沖縄県那覇市牧志2-19-16,03-6705-5554
295,ラナイ・ホテル＆ドミトリー　＾,190643,,,26.2186581,127.6932573,沖縄県那覇市安里1-2-6　2階,080-4625-1007
296,メイスン倶楽部　２０１　＾,185140,,,26.2187241,127.6949342,沖縄県那覇市安里1-4-19　メイスン倶楽部　安里,080-4086-2001
297,ＡＬＢＥＲＧＯ－ＰＩＮＯ　若狭　＾,190918,,,26.22458828,127.6795066,沖縄県那覇市若狭3-22-16　ＡＬＢＥＲＧＯ-ＰＩＮＯ,050-1790-1618
298,ＣＡＳＡ　ｄｅｌ　ＰＯＬＴＯ,187569,yad326487,,26.2247982,127.6791197,沖縄県那覇市若狭3-21-2,098-963-7007
299,ホテル　オーシャン（那覇国際通り）,78126,yad345778,00081090,26.21844993,127.6948549,沖縄県那覇市安里2-4-8,098-863-2288
300,琉球カプセルホテル８１３１（ハイサイ）　＾,186670,,,26.2184528,127.69521,沖縄県那覇市安里2-4-12号　ＭＡＸＩ　ＡＬＰＡビル　3階4階,080-9851-3510
301,レイサー沖縄那覇美栄橋,193523,yad388318,00919887,26.2218713,127.6820931,沖縄県那覇市前島3-7-7,03-6910-2907
302,ＨＯＴＥＬ　ＣＯＺＹ　ＳＴＡＹ　ＩＮ　那覇,177089,yad325632,00910611,26.2235035,127.7064951,沖縄県那覇市松島1-4-16,098-988-1952
303,コンフォートイン那覇泊港,182682,yad312407,00082293,26.2213926,127.6827043,沖縄県那覇市前島3-1-4,098-866-4711
304,ホテル沖縄　ｗｉｔｈ　サンリオキャラクターズ,177099,yad350468,00909631,26.2182709,127.6934572,沖縄県那覇市安里1-2-25,098-866-0011
305,ホテル　サン・クイーン（那覇／国際通り沿い）,52511,yad322422,,26.21822772,127.69423,沖縄県那覇市安里2-4-2-1,098-869-6600
306,たびの邸宅　沖縄那覇２ｎｄ,184777,yad330620,00914231,26.221674,127.6819968,沖縄県那覇市前島3-7-5,050-1808-3727
307,ＢＬＡＣＫ　ＶＩＬＬＡ　ＮＡＨＡ　＾,189296,-,00915395,26.2200361,127.6846645,沖縄県那覇市前島1-1-9　グランシャトレ前島2Ｆ,090-9612-4958
308,テンポイントホテル：コンドミニアムＯＫＯＵ,179231,,,26.21915322,127.6863971,沖縄県那覇市牧志2-17-22,098-861-0358
309,ホテルアーバンシー１　前島,168260,,,26.22120956,127.6822701,沖縄県那覇市前島3-6-28,098-860-1717
310,ホテルリゾネックス那覇,147530,-,00901838,26.2218503,127.6813365,沖縄県那覇市前島3-11-1,098-862-7733
311,ＲＪホテル那覇,164831,yad329265,00907190,26.22152181,127.6816865,沖縄県那覇市前島3-10-21,098-866-1011
312,ＪＣ　ＨＯＴＥＬ　ＮＡＨＡ,184762,yad366117,00914576,26.2226511,127.6801916,沖縄県那覇市前島3-21-5,098-988-9605
313,レジデンシャルホテル那覇　美栄橋（Ｒｅｓｉｄｅｎｔｉａｌ　Ｈｏｔｅｌ　Ｎａｈａ　Ｍｉｅｂａｓｈｉ）,183907,yad357526,00916886,26.2197935,127.6837942,沖縄県那覇市久茂地2-24-15 ビルマキシム,050-3177-2942
314,南西観光ホテル,11259,yad389790,00901933,26.2174861,127.6920635,沖縄県那覇市牧志3-13-23,098-862-7144
315,旅館　新恵荘,28076,,,26.21835817,127.6871806,沖縄県那覇市牧志2-17-45,098-866-1825
316,Ｃｏｎｄｏｍｉｎｉｏ　Ｍａｋｉｓｈｉ　Ａｎｎｅｓｓｏ,197095,yad369722,,26.2175516,127.6910861,沖縄県那覇市牧志2-7-2-2,03-6705-5554
317,プリンス　スマート　イン　那覇,184474,yad395850,00082438,26.2205665,127.6822591,沖縄県那覇市松山2丁目4番13号,050-3114-1392
318,ＦＡＢ　ＩＮＮ　＾,190520,,,26.2176682,127.6970604,沖縄県那覇市安里382-1　2階3階　ＦＡＢ　ＩＮ,098-975-7107
319,エナジックホテル山市　Ｅｎａｇｉｃ　ＨＯＴＥＬ　ＹＡＭＡＩＣＨＩ,180670,yad333708,00918635,26.2180564,127.6874477,沖縄県那覇市牧志2-16-13,098-866-5421
320,ＨＯＴＥＬ　ｍｉｎｉｍｕｍｍｓ．,193576,yad369850,00920508,26.2177521,127.6884524,沖縄県那覇市牧志2-16-45,098-963-6689
321,サンキョウビジネスホテル,135890,,,26.21796932,127.6872667,沖縄県那覇市牧志2-16-9,098-867-5041
323,沖縄ホテル,8526,yad347904,00900884,26.21810257,127.7004938,沖縄県那覇市大道35,098-884-3191
324,Ｍ＇ｓリゾート若狭＠ＬｉＢ　ＰＬＵＳ,184239,-,-,26.2223149,127.6790047,沖縄県那覇市若狭3-2-11,075-200-9953
325,サカエール＊ニライカナイ／民泊,173275,-,-,26.2170695,127.6969926,沖縄県那覇市安里388-69,090-1944-0051
326,Ｏｒｉｏｎ　Ｈｏｕｓｅ　ｉｎ　Ｎａｈａ　＾,173525,-,-,26.21702556,127.6970963,沖縄県那覇市安里388-5,080-9852-8558
327,エスティネートホテル那覇（ＥＳＴＩＮＡＴＥ　ＨＯＴＥＬ　那覇）,149249,yad343356,00082580,26.2199561,127.6818533,沖縄県那覇市松山2-3-11,098-943-4900
328,Ｙｅｌｌｏｗ　Ｓｕｂｍａｒｉｎｅ　＾,194149,-,-,26.2192412,127.683046,沖縄県那覇市久茂地2-20-7ルミエールミオナ701　Ｙｅｌｌｏｗ　Ｓｕｂｍａｒｉｎｅ,050-1809-1212
329,ネストホテル那覇久茂地,182439,yad331211,00082264,26.2195155,127.6822461,沖縄県那覇市久茂地2-22-5,098-975-7385
330,レーヴＫ２０１　＾,170702,-,-,26.2193134,127.6825895,沖縄県那覇市久茂地2-21-2　レーヴＫ201,080-4086-2001
331,東横ＩＮＮ那覇国際通り美栄橋駅,54087,yad311389,00909979,26.21872475,127.6836809,沖縄県那覇市牧志1-20-1,098-867-1045
332,ホテルフロムオキナワ　＾,171361,-,-,26.2221749,127.6787242,沖縄県那覇市若狭3-2-10　Ｈｏｔｅｌ　Ｆｒｏｍ　Ｏｋｉｎａｗａ,098-860-7687
333,Ｉｎｆｉｎｉｔｙ　Ｈｏｔｅｌ　那覇久茂地,182369,yad353248,00913916,26.2191047,127.6829116,沖縄県那覇市久茂地2-20-3,098-989-7617
334,ホテルアザット那覇,68091,yad384948,00080796,26.21646959,127.6952244,沖縄県那覇市安里2-8-8,098-863-0888
335,沖縄逸の彩（ひので）ホテル,181495,yad324454,00082436,26.21638434,127.6932324,沖縄県那覇市牧志3-18-33,098-863-8877
336,Ｃａｓａ　Ｌｅｏ　安里（カサレオ安里）,182105,-,-,26.2166431,127.6969268,沖縄県那覇市安里388-32,050-8886-2390
337,ゲストハウス　テラス坂下,178666,-,00915422,26.2181605,127.7021273,沖縄県那覇市松川301-15　テラス坂下2階~3階,080-6480-9925
338,栄町ロータリービル,188434,-,-,26.2166784,127.6975134,沖縄県那覇市字安里388-13,050-8886-2390
339,ロハスヴィラ,54224,yad306784,00908822,26.21687222,127.687925,沖縄県那覇市牧志2-1-6ブレスビル３Ｆ,098-867-7757
340,ＲＹＵＫＡ　ＨＯＴＥＬ　ＮＡＨＡ（琉華ホテル那覇）,168244,-,-,26.21794167,127.7020197,沖縄県那覇市松川300-2,098-970-6220
341,沖縄の宿　あじまぁ,54214,,00902747,26.21667225,127.6882138,沖縄県那覇市牧志2-1-18 2F,098-975-9851
342,若狭の家　＾,171089,,,26.2226172,127.6776645,沖縄県那覇市若狭3-7-29　Ｗａｋａｓａ　ｎｏ　ｉｅ,080-4699-0205
343,ラ・ジェント・ホテル沖縄那覇,195942,yad302404,00082644,26.2194008,127.6814582,沖縄県那覇市松山2-2-9,098-894-5600
344,４ＬＤＫ　国際通り、牧志駅徒歩２分　駐車場二台無料　デザイナーハウス　＾,175667,,,26.2159233,127.693465,沖縄県那覇市牧志3-18-23 Condominium Link House,090-7297-5501
345,Ｆａｍｉｌｙ　Ｒｏｏｍ　Ｏｋｉｎａｗａ　＾,185875,,,26.2179957,127.6836174,沖縄県那覇市牧志1-14-21号　Ｆａｍｉｌｙ　Ｒｏｏｍ　Ｏｋｉｎａｗａ,090-7454-5779
346,ホテルブライオン那覇,27883,yad374934,00901163,26.21986348,127.6802728,沖縄県那覇市松山2-15-13,098-868-1600
347,Ｍｒ．ＫＩＮＪＯＭｉｋｉ２４ｉｎ牧志駅前,178486,yad396080,00914158,26.21569985,127.6935824,沖縄県那覇市牧志3-23-33,098-988-1762
348,Ｓｏｕｔｈｅｒｌｉｅｓ久茂地,181539,,,26.2182452,127.6826287,沖縄県那覇市久茂地2-18-21　サザリーズコンドミニアム久茂地2Ａ（101号室）,070-1369-1334
349,上間氏住宅　＾,189317,,,26.2183774,127.6823708,沖縄県那覇市久茂地2-17-5　3Ｆ　Ｕｅｍａ　ｓｈｉ　ｊｕｔａｋｕ,090-1080-9134
350,たびの邸宅　沖縄那覇,172467,yad358458,00050688,26.22044062,127.6792815,沖縄県那覇市松山2-26-10,050-1808-3727
351,グリーンリッチホテル＆カプセル那覇　人工温泉・二股湯の華,172254,yad377725,00081861,26.21967912,127.6801789,沖縄県那覇市松山2-15-1,098-863-2400
352,Ｃｏｎｄｏｍｉｎｉｏ　Ｍａｋｉｓｈｉ,197097,yad320091,00920783,26.2156293,127.690676,沖縄県那覇市牧志3-9-22,098-869-1651
353,ホテル山の内,10959,yad374036,00907400,26.21625561,127.6873223,沖縄県那覇市牧志1-3-55,098-862-5301
354,ＢｉＢｉ　Ｈｏｔｅｌ　国際通り,177702,yad356785,00914239,26.21556247,127.6910825,沖縄県那覇市牧志3-20-36,098-975-9567
355,ＧＲＧホテル那覇,16693,yad306651,00907221,26.21957183,127.6800367,沖縄県那覇市松山2-16-10,098-868-6100
356,パラダイスイン　＾,185124,,,26.2163959,127.6862768,沖縄県那覇市牧志1-3-17　ｐａｒａｄｉｓｅ　ｉｎｎ,090-6867-3473
357,シーサー・イン那覇,1623,,,26.2160649,127.6871171,沖縄県那覇市牧志1-3-59,098-861-4311
358,ソルヴィータホテル那覇,43753,yad392244,00080573,26.21984679,127.6792118,沖縄県那覇市松山2丁目17-17,098-863-1234
359,シークレットハウス牧志,151299,yad361387,00050277,26.2164008,127.6855505,沖縄県那覇市牧志1-3-11　2階3階,080-6487-5282
360,ランドーレジデンス那覇沖縄,196086,yad371368,00920244,26.2212945,127.6774266,沖縄県那覇市若狭2-4-13,03-6806-5544
361,Ｎｅｗ　Ｎｏｒｍａｌ　Ｈｏｔｅｌ　ｉｎ　ＭＡＴＳＵＹＡＭＡ（ニューノーマルホテルイン松山）,183142,yad362912,00913384,26.2208157,127.6778065,沖縄県那覇市松山1-35-14,098-894-4704
362,ホテルエアウェイ,753,yad311346,00918460,26.21831087,127.6810533,沖縄県那覇市久茂地2-14-5,098-864-0511
363,ホテル　ロコイン沖縄,15963,yad346482,00081106,26.22043283,127.6780619,沖縄県那覇市松山1-27-11,098-869-6511
364,ゲストハウスブルーオーシャン那覇,192998,yad386434,00919253,26.22141506,127.6769513,沖縄県那覇市若狭2-5-6,098-960-0293
365,ホテル　タイラ,12551,yad310743,00901078,26.21913576,127.6795451,沖縄県那覇市松山1-14-13,098-868-4515
366,Ｍｒ．ＫＩＮＪＯ　Ｅｍｉｎｅｎｃｅ　ｉｎｎ　Ｍａｋｉｓｈｉ,149417,-,00905135,26.2147069,127.6930723,沖縄県那覇市牧志3-22-39,098-917-6262
367,Ｐｒｏｕｄ　Ｍａｋｉｓｈｉ　＾,173419,,,26.2165508,127.6839897,"沖縄県那覇市牧志1-8-2　3Ｆ,4Ｆ",080-9852-8558
368,Ｍａｃｃｉ　ｇｕｗａｔｔｉ　＾,171196,,,26.2151837,127.6879713,沖縄県那覇市松尾2-8-35　2Ｆ　Ｍａｃｃｉ　ｇｕｗａｔｔｉ,090-3016-5339
369,アパホテル〈那覇松山〉,67292,yad308744,00080720,26.21824976,127.6804284,沖縄県那覇市松山1-4-16,0570-004-711
370,ゲストハウス　ＦＵＫＵＴＯＭＩ,141899,yad358696,00904731,26.21488122,127.6889878,沖縄県那覇市牧志3-2-46,098-861-8896
371,Ｔｈｅ　Ｇｕｅｓｔ　Ｈｏｕｓｅ　Ｎｏａｈ,187953,,,26.21501047,127.6882919,沖縄県那覇市松尾2-9-11　吉川ビル3階,080-3532-3129
372,ホテル　ロコイン松山,626,yad314666,00081107,26.21898577,127.6792201,沖縄県那覇市松山1-14-5,098-869-6565
373,ホテルランタナ那覇国際通り,176688,yad346170,00916246,26.2154548,127.6860562,沖縄県那覇市松尾2-8-1,098-862-3211
374,ＨＯＴＥＬ　ｂｒｉｇｈｔ　ｃｏｌｏｒ　ＭＨＭ　Ｎａｈａ,196314,yad369894,-,26.2208943,127.6767946,沖縄県那覇市若狭2-4-1　ＭＨＭ601,050-1720-1948
376,ホテルランタナ那覇松山,177516,yad385561,00916261,26.21820952,127.6796542,沖縄県那覇市松山1-13-20,098-917-6106
377,ホテルアーバンシー２　松尾,176932,,,26.21488552,127.6870744,沖縄県那覇市松尾2-8-45,050-5482-3712
378,わらゆんＳＯ　松武の古民家,166899,,,26.2140709,127.6930863,沖縄県那覇市壺屋1-25-2,080-3982-2071
379,わらゆんＳｏ〜ヴィラ壺屋〜,182316,,,26.2140206,127.693008,沖縄県那覇市壺屋1-25-26,080-3982-2071
380,スマイルハイツ　＾,171040,,,26.2139432,127.6931326,沖縄県那覇市壺屋1-25-25号　Ｓｍｉｌｅ　Ｈｅｉｇｈｔｓ,03-6705-5554
381,ＡＳ＿ＢＬＤＧ　Ｄｏｗｎｔｏｗｎ　Ｍｅｔｒｏ　ＮＡＨＡ　＾,173637,,,26.2180131,127.679412,沖縄県那覇市松山1-12-14,080-9852-8558
382,ステラリゾート,44353,yad335682,-,26.21408643,127.6895499,沖縄県那覇市牧志3-6-41 3F,098-863-1330
383,Ｓｏｕｔｈｗｅｓｔ　Ｇｒａｎｄ　Ｈｏｔｅｌ,184913,yad326032,00003013,26.2156658,127.6837213,沖縄県那覇市久茂地3-29-52,098-860-0421
384,ビレッジまつお２０１,181232,,,26.21434257,127.6878915,沖縄県那覇市松尾2-11-14　ビレッジまつお2F,050-5534-5255
385,ＢＬＵＥ　ＨＯＵＳＥ　ＵＲＡＳＯＥ　＾,173483,,,26.2504168,127.7079047,沖縄県浦添市屋富祖2-29-29 C棟,080-9852-8558
386,ホテルカクテルステイナハ,178226,yad369585,00081936,26.21984303,127.6768446,沖縄県那覇市松山1-29-7,050-1792-2641
387,ステイインやふそスタイルＡ棟・Ｂ棟,172014,,,26.250387,127.7080403,沖縄県浦添市屋富祖2-29-27，2-29-28,098-870-4005
388,沖縄の宿　行燈（あんどん）,68058,,,26.21471056,127.6860027,沖縄県那覇市松尾2-5-20,098-861-2778
389,ホテル天使館久茂地,184632,yad352184,-,26.2156882,127.6832884,沖縄県那覇市久茂地3-29-28,098-894-3597
390,沖縄ゲストハウスＧＲＡＮＤ那覇（グランナハ）,149061,yad383511,00917941,26.21697428,127.680537,沖縄県那覇市久茂地2-7-11,098-917-4946
391,Ｍ　ｈｏｍｅ　＾,170377,,,26.2155622,127.683227,沖縄県那覇市久茂地3-29-9-1Ｆ　Ｋｕｍｏｊｉ　ＨｏｕｓｅＩＩ,080-9105-7319
392,コンドミニアムハウスＶＥＲＹ　＾,184937,,,26.2137303,127.6897122,沖縄県那覇市壺屋1-7-5号　2Ｆ　コンドミニアムハウスＶＥＲＹ,050-1790-1618
393,ＷＯＯＤＳＩＤＥ　ＳＴＵＤＩＯ,187978,yad354802,00914980,26.2177395,127.6791606,沖縄県那覇市松山1-12-18,098-943-9500
394,ゲストハウス　柏屋,40451,,,26.21401697,127.6879306,沖縄県那覇市松尾2-11-22,098-869-8833
395,ビジネスホテル三和莊,28458,,,26.21364759,127.6899332,沖縄県那覇市壺屋1-7-9,098-867-8689
396,Ｍｒ．ＫＩＮＪＯ　ｉｎ　Ａｒｃａｄｅ,167932,yad358327,00904422,26.21369317,127.6894425,沖縄県那覇市牧志3-5-8,098-917-1580
397,龍神ホテル浮島那覇（ｃｏｎｄｏ－ｈｏｔｅｌ）,181339,yad363898,00912070,26.21467856,127.6852493,沖縄県那覇市松尾2-5-36,098-943-1818
398,Ｅｘｓａｉｓｏｎ久茂地　＾,169747,,,26.2159332,127.6820461,沖縄県那覇市久茂地3-15-6　Ｅｘｓａｉｓｏｎ　Ｋｕｍｏｊｉ,03-4405-2361
399,Ｋｕｍｏｊｉ　Ｈｏｕｓｅ　＾,170376,,,26.2151066,127.6838091,沖縄県那覇市久茂地3-29-10　Ｋｕｍｏｊｉ　Ｈｏｕｓｅ,080-9105-7319
400,ビクトリアホテル,153305,yad347511,00907906,26.2201087,127.6759398,沖縄県那覇市若狭2-2-12,098-868-0701
401,Ｈｏｓｔｅｌ　沖縄　リトルアジア　Ｇｕｅｓｔ　Ｈｏｕｓｅ,44183,yad300650,-,26.21352259,127.6894471,沖縄県那覇市壺屋1-7-1丸国マーケット２階リトルアジア,098-862-3446
402,オアシスハウス,181456,yad391421,-,26.2159788,127.6816631,沖縄県那覇市久茂地3-16-15　2階,098-963-7007
403,民宿柏青荘,19329,yad382405,00915563,26.2140475,127.6867251,沖縄県那覇市松尾2-12-7-3Ｆ,098-866-5757
404,国際タウンズイン,84787,-,00907230,26.2140475,127.6866724,沖縄県那覇市松尾2-12-7,098-860-1236
405,アパホテル〈那覇空港若狭〉,183849,yad352620,00082406,26.2198443,127.6760425,沖縄県那覇市松山1-33-8,0570-005-211
406,ホステル美らキャビン,168674,,00909372,26.21471176,127.6843628,沖縄県那覇市松尾2-1-7-5,098-894-8981
407,ホテルリビングイン県庁前駅,193319,yad340608,00920232,26.2163439,127.6806398,沖縄県那覇市久茂地2-6-23,098-988-3900
408,ゲストハウス松山,187446,,,26.2173256,127.6790047,沖縄県那覇市松山1-7-6　葦原ビル2F,050-5369-8688
409,那覇市　壺屋の宿　ＧＲＡＮＤＰＡ＇Ｓ　ＨＯＵＳＥ　Ｂａｒｃｈａｎｃｈｉ　＾,186384,,,26.2131292,127.6899297,沖縄県那覇市壺屋1-6-5号　1Ｆ　ＧＲＡＮＤＰＡ＇Ｓ　ＨＯＵＳＥ　Ｂａｒｃｈａｎｃｈｉ,090-9785-3482
410,アルファベッドイン那覇国際通りＷＥＳＴ,182582,yad336292,00916664,26.2130944,127.6902054,沖縄県那覇市壺屋１丁目5番1号,098-963-7007
411,リンゴテラス壺屋　＾,171621,-,,26.2127188,127.6938597,沖縄県那覇市壺屋2-19-21ホーュウハイツ4階、5階　ホーュウハイツ,080-2753-5990
412,Ｈｏｓｔｅｌ　沖縄　リトルオアシス,76418,,,26.21339757,127.6864863,沖縄県那覇市松尾2-14-16　カフェリトルオアシス2階,098-862-3446
413,民宿やすらぎ　＜沖縄県＞,160941,,,26.2127459,127.6896144,沖縄県那覇市壺屋1丁目6番17号,098-863-7142
414,Ｌｉｔｔｌｅ　Ｉｓｌａｎｄ　Ｏｋｉｎａｗａ　松山,177772,yad361468,00909461,26.21911868,127.6755873,沖縄県那覇市松山1-31-3,098-880-2570
415,ＣＡＢＩＮ＆ＨＯＴＥＬ　ＣＯＮＳＴＡＮＴ　ＮＡＨＡ,183572,yad357846,00913593,26.212653,127.6892447,沖縄県那覇市壺屋1-1-3,098-869-0701
416,沖縄家庭料理の宿　なかはら,28077,,,26.22017221,127.7121423,沖縄県那覇市首里山川町1-69-3,098-887-7073
417,アルファベッドイン那覇国際通りＥＡＳＴ,183254,yad327212,00916665,26.2122494,127.690906,沖縄県那覇市壺屋１-18-46,098-963-7007
418,サザンハウス髙良　＾,199748,,,26.212313,127.6899486,"沖縄県那覇市壺屋1-2-23 サザンハウス髙良 201室,301室,401室",090-3160-2621
419,グランツイン国際通り,196425,yad392752,00920391,26.2127892,127.6869741,沖縄県那覇市松尾2-14-24,098-988-1952
420,ＯＮ　ＴＨＥ　ＳＡＭＥ　ＨＯＴＥＬ,179464,yad358965,00916719,26.2126662,127.6874584,沖縄県那覇市松尾2-19-28,080-5115-3625
421,ワイヤーズホテルＮＡＨＡ,147940,yad394923,00908236,26.2212447,127.6731149,沖縄県那覇市若狭1-21-10,098-917-5267
422,Ｍａｉｓｙ’ｓ　Ｏｃｅａｎ　Ｇａｒｄｅｎ,197785,,,26.2199345,127.6741941,沖縄県那覇市若狭1-14-15,050-1790-1618
423,波の上クリスタルホテル,179329,yad370814,00904876,26.2209048,127.6732302,沖縄県那覇市若狭1-20-7,098-868-4190
424,ＴＲＩＰ　ＳＰＯＴ　７７４,168642,,,26.21192769,127.690604,沖縄県那覇市壺屋1-4-15　コントラストビル,098-943-5191
425,畳の宿　那覇壺屋　ｂｙ　コルディオプレミアム,182156,yad319607,00920735,26.21182315,127.6920211,沖縄県那覇市壺屋1-31-1,098-961-6207
426,ＬＥＳＴＥＬ　ＮＡＨＡ,178159,yad388547,00921629,26.2120521,127.6890074,沖縄県那覇市松尾2-24-10,098-917-0314
427,ゲストハウス　ＢＡＳＥ　ＯＫＩＮＡＷＡ,69365,yad362056,00915565,26.22062996,127.6731123,沖縄県那覇市若狭1-17-5,098-868-2968
428,Ｒａｋｕｔｅｎ　ＳＴＡＹ　那覇　やちむん通り,170488,,00916150,26.21186699,127.6893835,沖縄県那覇市壺屋1-1-24,050-1750-9719
429,ホテルシーバーグ波之上,184684,,,26.2209452,127.6726822,沖縄県那覇市若狭1-21-1,098-863-7700
430,ホテル・キング,28075,yad357074,,26.25424079,127.7062006,沖縄県浦添市屋富祖4-6-3,098-877-3436
431,Ｌハウス那覇,181725,,,26.2168741,127.6761476,沖縄県那覇市久米2-19-22,090-6867-8230
432,Ｋｏｋｕｓａｉ　Ｓｔｒｅｅｔ　Ｇａｒｄｅｎ　Ｈｏｔｅｌ,182307,yad342833,00917425,26.2112653,127.6894659,沖縄県那覇市樋川2-2-10,098-911-5077
433,ビジネスホテルうえず荘,129565,,,26.21622259,127.7097453,沖縄県那覇市松川3-17-17,098-887-0323
434,西鉄リゾートイン那覇,130025,yad371653,00080701,26.21553889,127.6775426,沖縄県那覇市久米2-3-13,098-869-5454
435,Ｍｒ．ＫＩＮＪＯ　ＬＩＮＫｉｎＫｕｍｅＮＡＨＡ,177934,,00914148,26.21728828,127.675037,沖縄県那覇市久米2-26-17,098-963-9285
436,コンドミニアムＧＯＬＦＧＯＬＦ壺屋,167076,yad350964,00919240,26.2106325,127.6953058,沖縄県那覇市寄宮1-11-14,098-987-1789
437,スマイルホテル那覇シティリゾート,151274,yad382179,00901221,26.2176784,127.6742318,沖縄県那覇市久米2-32-1,098-869-2511
438,ＰＲＯＳＴＹＬＥ　ＴＥＲＲＡＣＥ　ＮＡＨＡ（プロスタイル　テラス　ナハ）,182862,yad346200,00917921,26.21525429,127.6771151,沖縄県那覇市久米2-3-2,098-988-4860
439,ホテル　ピースランド久米,39414,yad352932,00907679,26.21520281,127.6771009,沖縄県那覇市久米2-3-19,098-860-6070
440,ルソレイル樋川　＾,169535,,,26.2109078,127.687226,沖縄県那覇市樋川1-4-33　ルソレイル樋川,080-3221-0056
441,ＩＮＦＩＮＩＴＹ　ＨＯＴＥＬ　－ＨＩＧＡＷＡ－　＾,174831,,00051055,26.2107536,127.6878973,沖縄県那覇市樋川1-5-46,070-5410-1526
442,ＩＮＦＩＮＩＴＹ　ＨＯＴＥＬ　樋川,184709,,00051055,26.2107536,127.6878973,沖縄県那覇市樋川1-5-46,098-943-5727
443,Ｍｃｉｔｙ　ｉｎ　ＷＡＫＡＳＡ,182113,yad368331,,26.2187098,127.6727813,沖縄県那覇市若狭1-10-18,06-7713-1349
444,沖縄県青年会館,19420,,,26.21563053,127.6762093,沖縄県那覇市久米2-15-23,098-864-1780
445,Ｍｒ．ＫＩＮＪＯ　ｉｎ　ＭＩＨＡＲＡ,165989,,00905130,26.21061758,127.6987306,沖縄県那覇市三原1-1-19,098-894-6086
446,プロスタイル旅館　那覇県庁前,182305,yad394208,00917924,26.2148701,127.676823,沖縄県那覇市久米2-2-1,098-917-1629
447,刻の宿　那覇　ｂｙ　サンレストリゾート（旧コンドミニアムエルズイン那覇樋川ｂｙコルディオプレミアム）,166044,yad347312,00905168,26.21008829,127.6889879,沖縄県那覇市樋川1-7-1,098-970-8513
448,ホテルリブマックスＢＵＤＧＥＴ那覇,136129,yad387368,00900358,26.2147516,127.6767606,沖縄県那覇市久米2-2-7,098-868-0111
449,ＢｉＢｉ　Ｈｏｔｅｌ　ＮＡＨＡ　ＫＵＭＥ,183233,yad344114,00914215,26.21767834,127.673037,沖縄県那覇市久米1-7-8,098-917-0920
450,スマイルスマートイン那覇久米,198834,yad321282,,26.2176278,127.673058,沖縄県那覇市久米1-7-8,090-6451-3754
451,Ｎｅｗ　Ｎｏｒｍａｌ　Ｈｏｔｅｌ　ｉｎ　ＮＡＭＩＮＯＵＥ（ニューノーマルホテルイン波の上）,183143,yad356865,00913383,26.2188332,127.6716832,沖縄県那覇市辻2-9-3,098-894-4353
452,ホテル　トロピカーナ【大人専用１８禁・ハピホテ提携】,163428,,,26.21893265,127.6712026,沖縄県那覇市辻2-17-4,098-862-7300
453,龍球,167968,yad317245,,26.25226926,127.7130946,沖縄県浦添市城間2-12-10　2Ｆ,098-917-2005
454,Ｍｒ．ＫＩＮＪＯ　ｉｎｎ　Ｄ－ｂｕｉｌ,160824,yad385012,,26.218045,127.6719152,沖縄県那覇市辻2-8-16,080-6487-6327
455,Ｖｉｌｌａ　Ｂｉａｎｃｏ,167103,,,26.2094241,127.6892898,沖縄県那覇市樋川1-7-16,075-746-3987
456,コーラルゲートイン久米,184688,,00915329,26.2172326,127.672597,沖縄県那覇市久米1-8-5,098-863-5350
457,那覇ラグーンホテルＩ,166487,,,26.2192587,127.6703653,沖縄県那覇市辻2-24-1,098-863-6999
458,ＣＯＮＤＯＭＩＮＩＵＭ　ＨＯＴＥＬ　Ｒｉｙｕｋａ　ｉｎ　ＫＵＭＥ,197652,yad328368,00921553,26.21699865,127.6721646,沖縄県那覇市久米1-23-5,098-963-9099
459,松藤３Ｆ　＾,185521,,,26.2172312,127.6719262,沖縄県那覇市辻2-1-9　松藤ビル　2～4Ｆ,080-4086-2001
460,ダイワロイネットホテル沖縄県庁前,104526,yad345096,00080050,26.21322734,127.6766836,沖縄県那覇市泉崎1-11-2,098-860-1855
461,めんそーれ　＾,185492,,,26.2140259,127.6754411,沖縄県那覇市久米1-1-25　めんそーれビル3階　Ｍｅｎｓｏｒｅ,06-7167-6623
462,Ｍｒ．ＫＩＮＪＯ　ｉｎ　ＵＥＮＯＫＵＲＡ,187927,,00905133,26.2169977,127.6717319,沖縄県那覇市辻2-1-6,098-943-9021
463,Ｍｒ．ＫＩＮＪＯｉｎＣｏｌｏｒ′ｚＣｉｉｚｉ,176603,yad360824,00914159,26.2183742,127.6704435,沖縄県那覇市辻2-18-6,098-917-1571
464,沖縄ホテルプレシア,158381,yad331594,00910725,26.2171923,127.671382,沖縄県那覇市辻2-6-1,098-864-2111
465,リバーサイド旭橋,72700,,,26.21311968,127.6762372,沖縄県那覇市泉崎1-12-14,098-835-1818
466,ＢｉＢｉ　Ｈｏｔｅｌ　波之上,184144,yad389467,00914240,26.21764699,127.6708108,沖縄県那覇市辻2-11-23,098-988-9215
467,ＧＲＧホテル那覇東町,41401,yad350295,00908205,26.21378904,127.6750706,沖縄県那覇市東町6-16,098-862-7200
468,ＨＯＴＥＬ　ＣＯＺＹ　ＳＴＡＹ　ＩＮ　糸満,162659,yad304215,00904047,26.1258339,127.6660589,沖縄県糸満市糸満2433-5,098-988-1952
469,ＫＡＩ　Ｓｈｉｏｚａｋｉ,192444,,,26.1208666,127.6674094,沖縄県糸満市潮崎町3-2-7,098-987-9889
470,ゲストハウス　Ｓｅａ　ｇｌａｓｓ,149069,,,26.12059844,127.6696223,沖縄県糸満市真栄里2032-9,080-6497-1018
471,南海ホテル糸満,67366,,,26.12769513,127.6661617,沖縄県糸満市糸満1981-1,098-992-3229
472,ＺＡ１５５　糸満ＩＮ　２，３Ｆ　＾,195109,,,26.1290314,127.6670873,沖縄県糸満市糸満989-57,080-4086-2001
473,ホテルトーマスみなみ,181236,,00912226,26.12763623,127.6643022,沖縄県糸満市字糸満2187,090-6867-8230
474,やど　有,145353,,,26.12987889,127.6629502,沖縄県糸満市糸満2275　2F,098-955-2964
475,Ｓｏｕｔｈ　Ｉｓｌａｎｄ,165792,,,26.1298477,127.6753165,沖縄県糸満市糸満1938,080-3184-7754
476,民宿　「琉菜」,158437,,,26.1367636,127.6725026,沖縄県糸満市兼城498-19,098-992-5894
477,サザンビーチホテル&リゾート沖縄,76401,yad347081,00001468,26.13154456,127.6531016,沖縄県糸満市西崎町1-6-1,098-992-7500
478,Ｍｒ．ＫＩＮＪＯ　ｉｎ　ＮＩＳＨＩＺＡＫＩ,166976,yad375238,00905128,26.1434436,127.6702276,沖縄県糸満市西崎6-7-8,098-894-6832
479,ペンション・喫茶　南の楽園,37448,,00903693,26.10403098,127.6690896,沖縄県糸満市小波蔵145-1,098-997-4005
480,Ｎａｓｈｉｒｏ　Ｗｈｉｔｅ　Ｃｕｂｅ／民泊,186030,,,26.1038517,127.6612785,沖縄県糸満市名城224-1　Ｎａｓｈｉｒｏ　Ｗｈｉｔｅ　Ｃｕｂｅ,080-7302-0404
481,民宿糸満ガリガリーおおしろ　＾,185640,yad374248,,26.1014178,127.669259,沖縄県糸満市小波蔵147-1　民宿糸満ガリガリーおおしろ,090-6865-2341
482,ＮＡＲＵ　ＨＯＵＳＥ,168400,,,26.0997004,127.6787865,沖縄県糸満市南波平73-2,098-832-1046
483,プラネットコア／民泊,173417,,,26.2544686,127.733064,沖縄県浦添市当山1-3-18,090-6713-5885
484,Ｄ－ａｎｄ　Ｓｔａｙ．５　Ｒｅｓｏｒｔ　Ｏｋｉｎａｗａ,184672,,00051005,26.24332819,127.7372041,沖縄県浦添市前田2-14-8,098-917-5628
485,ウィンアカミネ,196112,yad338492,,26.2572678,127.7101031,沖縄県浦添市城間1-10-8,075 200 9953
486,コンドミニアムホテル・リッカ　ｉｎ　Ｇｕｓｕｋｕｍａ,191591,yad352529,,26.2576913,127.7104683,沖縄県浦添市城間3-6-5,070-8374-8530
487,Ｒｅｄ　Ｄｒａｇｏｎ　Ｏｋｉｎａｗａ／民泊,186923,,,26.2632028,127.7204085,沖縄県浦添市牧港1-47-11-1　レッドドラゴン,070-8374-8530
488,Ｏｌｄ　Ａｍｅｒｉｃａｎ　Ｈｏｕｓｅ　Ｋ－１１３／民泊,185368,,,26.2600948,127.7338693,沖縄県宜野湾市嘉数1-14-1　Ｏｌｄ　Ａｍｅｒｉｃａｎ　Ｈｏｕｓｅ　Ｋ-113,050-5444-6620
489,パインテラス／民泊,189897,,,26.2621413,127.7302451,沖縄県宜野湾市嘉数4-22-16　2階,070-9194-2736
490,ＧＲＥＥＮ　ＨＯＵＳＥ（グリーンハウス）,158861,,,26.26282366,127.7145862,沖縄県浦添市港川2-11-14,080-6493-1274
491,ホテル＆サロンＪｏＪｏ,166909,,,26.26455353,127.7259484,沖縄県浦添市牧港2-45-3　302,090-6861-7025
492,ハッピーハウス　３０１＜浦添市＞,167487,,,26.2646148,127.7259417,沖縄県浦添市牧港2-45-3　301,098-875-7558
493,ホテルトーマス牧港ヴィラ,180353,,00912260,26.2652282,127.7186162,沖縄県浦添市牧港1-62-1,090-6867-8230
494,ドミトリーマチナト,137375,,,26.26658144,127.7268708,沖縄県浦添市牧港4-7-7,098-988-1369
495,アルセ琉球　ハーバーステイ,172466,yad367402,00916651,26.2688422,127.726047,沖縄県浦添市牧港5-9-2,098-870-0530
496,Ｗｉｎｄ　牧港,180404,yad395104,00913191,26.2698639,127.7249099,沖縄県浦添市牧港5-14-17,050-8880-4077
497,はなハウス３Ｆ　＾,171317,,,26.2695076,127.727765,沖縄県宜野湾市宇地泊506　はなハウス,080-4086-2001
498,ホテルアラクージュ　オキナワ,184569,yad349024,00082467,26.269819,127.7148708,沖縄県浦添市字港川512番地55,098-943-5300
499,全室エアコン／ダブルベッド３台／駐車無料！　＾,190845,,,26.2695519,127.732661,沖縄県宜野湾市宇地泊1-4-10　Ｃ＆Ｋ　ＯＫＩＮＡＷＡ　　2階,080-4318-8168
500,Ｍｒ．ＫＩＮＪＯ　ｉｎ　ＵＣＨＩＤＯＭＡＲＩ,167206,,00905146,26.27015104,127.732014,沖縄県宜野湾市宇地泊1-11-6,098-917-2151
501,Ｍｒ．ＫＩＮＪＯ　ｉｎ　ＭＡＥＨＡＲＡ（旧：ＨＯＴＥＬ　ベースビュー真栄原）,165927,,00904020,26.26394993,127.7434465,沖縄県宜野湾市真栄原3-13-18,098-917-0322
502,ＨＯＴＥＬ　ＣＯＺＹＳＴＡＹ　ＩＮ　港川,183141,,,26.26962426,127.7086797,沖縄県浦添市港川584-5,098-988-1952
503,リゾザイゼンホテル,183067,yad305740,,26.2696899,127.7352834,沖縄県宜野湾市宇治泊一丁目7番10号,098-989-3880
504,はなハウス４Ｆ　＾,185522,,,26.272073,127.727755,沖縄県宜野湾市宇地泊506　Ｈａｎａ　ｈｏｕｓｅ,080-4086-2001
505,アネックス　西原インター前,164880,yad331070,00904607,26.2514915,127.7509855,沖縄県浦添市西原3-19-5,070-1990-2022
506,ウィークリーハーバービューマンション宜野湾館,166557,yad327407,00902741,26.26985167,127.7353932,沖縄県宜野湾市大謝名245-4,098-897-0707
507,Ｖｅｎｔ　ｄｕ　Ｖｅｎｔ　３０２　＾,185186,,,26.2702231,127.7087368,沖縄県浦添市字港川574-1　3～5階　Ｖｅｎｔ　ｄｕ　Ｖｅｎｔ,080-4086-2001
508,Ｖｅｎｔ　ｄｕ　Ｖｅｎｔ　４０２　＾,186890,,,26.2702231,127.7087368,沖縄県浦添市字港川574-1　3～5階　Ｖｅｎｔ　ｄｕ　Ｖｅｎｔ　402,080-4086-2001
509,Ｖｅｎｔ　ｄｕ　Ｖｅｎｔ　５０１　＾,189343,,,26.2702231,127.7087368,沖縄県浦添市字港川574-1　3～5階　Ｖｅｎｔ　ｄｕ　Ｖｅｎｔ　5Ｆ,080-4086-2001
510,Ｖｅｎｔ　ｄｕ　Ｖｅｎｔ　５０２　＾,189357,,,26.2702231,127.7087368,沖縄県浦添市字港川574-1　3階～5階　Ｖｅｎｔ　ｄｕ　Ｖｅｎｔ　5Ｆ,080-4086-2001
511,Ｖｅｎｔ　ｄｕ　Ｖｅｎｔボン　ドゥ　ボン　３０１　＾,170079,,,26.270681,127.7086,沖縄県浦添市字港川574-1　Ｖｅｎｔ　ｄｕ　Ｖｅｎｔ,080-4086-2001
512,レインボーテラス宜野湾,151167,yad362950,00909618,26.27258482,127.7316854,沖縄県宜野湾市宇地泊1-24-13,080-8383-0399
513,ＳＡＬＴＹ　ＨＯＵＳＥ／ソルティ　ハウス,178927,,00918835,26.27261709,127.7085204,沖縄県浦添市港川543,090-1945-1479
514,ＷＯＲＬＤ　ＨＯＵＳＥ　ＴＵＲＮＥＲ,180762,yad382588,,26.2773196,127.7797071,沖縄県宜野湾市上原2-12-7,098-963-7007
515,ＢｉＢｉ　Ｈｏｔｅｌ　ＦＵＴＥＮＭＡ,167933,yad376720,00915509,26.28885863,127.7780867,沖縄県宜野湾市普天間1-1-22,098-917-1778
516,Ｃａｓａ　Ｎ.Ｙ,162693,,,26.2891245,127.7776119,沖縄県宜野湾市普天間2-13-2,098-893-7767
517,ＤＯＵＣＥ（ドゥース）,166895,yad345362,,26.28973,127.7762703,沖縄県宜野湾市普天間2-37-8,090-6857-7383
518,Ａ－ｓｔｙｌｅ　Ｆｕｔｅｎｍａ　＾,173986,,,26.2895856,127.7756507,沖縄県宜野湾市普天間2-36-13,080-5195-1674
519,【無料レンタカー・駐車場付き】Ｓｕｎｓｔｏｎｅ　Ｒｅｓｉｄｅｎｃｅ　２Ｆ｜貸切１ＬＤＫ｜観光に便　＾,199845,,,26.2893344,127.7729236,沖縄県宜野湾市新城1-28-2 Ｓｕｎｓｔｏｎｅ,070-6517-7972
520,Ｇｏｏｄ　Ｄａｙ　Ｈｏｔｅｌ,180423,yad394940,,26.29468618,127.759786,沖縄県中頭郡北谷町北前278,050-5369-8688
521,ＵＧＡＮＡ　ＶＩＬＬＡ　ＧＩＮＯＷＡＮ／民泊,185004,,,26.2627088,127.766453,沖縄県宜野湾市長田1-15-11　1・2階　Ｕｇａｎａ　Ｖｉｌｌａ　Ｇｉｎｏｗａｎ,090-1814-1185
522,Ｈｉｄｅ　Ｈｏｕｓｅ,160717,,,26.2951405,127.759349,沖縄県中頭郡北谷町北前264-3,098-930-6505
523,ホテルサザンヴィレッジ沖縄,129499,yad366983,00907282,26.30053709,127.7907953,沖縄県中頭郡北中城村安谷屋1359-1,098-935-3030
,ヤドカリハウス北谷（ＹＡＤＯＫＡＲＩ　ＨＯＵＳＥ　Ｃｈａｔａｎ）,188977,yad308937,00917145,26.295422,127.7584991,沖縄県中頭郡北谷町字北前261-6,050-3615-6243
,ＭＫハウス,193132,,,26.2934728,127.7566582,沖縄県宜野湾市伊佐3-20-12,080-3089-3750
,マカナレアリゾート沖縄　１５０ｍ２ペンション　大人数１６名可　ＢＢＱ可　コンビニ２分　＾,185344,,,26.29126825,127.7552532,沖縄県宜野湾市伊佐3-10-12-1,080-5017-7774
,マカナレアビーチ沖縄　アメリカンビレッジ８分　好立地　大人数１６名可　＾,185345,,,26.29121655,127.755209,沖縄県宜野湾市伊佐3-10-12-2,080-5017-7774
,ツカサコンド北谷アラハ,177576,,00050960,26.29571883,127.7580142,沖縄県中頭郡北谷町北前259-12,098-960-0056
,ＯＫＩＮＡＷＡ　ＧＲＥＥＮ　ＬＯＤＧＥ,172739,,,26.29655872,127.7583432,沖縄県中頭郡北谷町北前236-7,098-923-0415
,ＴＨＥ　ＧＲＡＮＤ　ＨＯＴＥＬ　ＧＩＮＯＷＡＮ　オーシャン＆シティビューのプレミアム３スターホテル,183103,yad307662,00082171,26.28275134,127.752094,沖縄県宜野湾市大山3-5-1,098-898-7700
,テラスリゾート　宜野湾,147880,yad381645,00909846,26.2857828,127.752425,沖縄県宜野湾市大山3-20-6,080-3457-3215
,ＢｉＢｉ　Ｈｏｔｅｌ　コンベンションベイ,168467,yad353579,00915508,26.2890409,127.7532442,沖縄県宜野湾市伊佐4-2-6,098-988-4361
,ＭＫ４３６　ＪＯＵＪＩＨＯＵＳＥ／民泊,199650,,,26.3040839,127.793128,沖縄県中頭郡北中城村喜舎場111,080-3592-6689
,ＷＡＴＥＲ　ＨＯＴＥＬ　Ｒｙ【大人専用１８禁・ハピホテ提携】,163432,,,26.2872938,127.7486501,沖縄県宜野湾市大山7-5-20,098-890-1123
,テラスリゾートＭＩＨＡＭＡ,183219,yad329137,00913349,26.3064695,127.7629281,沖縄県中頭郡北谷町北谷1-7-7,0120-330-885
,アラハリゾート　アラパナ,165742,,00902461,26.3045621,127.759599,沖縄県中頭郡北谷町北谷2-16-7,098-936-0337
,ＢＲＥＡＫＹ　ＨＯＴＥＬ,172402,,,26.30723431,127.7635711,沖縄県中頭郡北谷町北谷1-5-12,080-3754-2528
,ＥＭウェルネス暮らしの発酵ライフスタイルリゾート,52431,yad377457,00030763,26.30652264,127.7953643,沖縄県中頭郡北中城村喜舎場1478,098-935-1500
,ホテルハンビーリゾート,68497,yad353527,,26.30789427,127.7620782,沖縄県中頭郡北谷町北谷1-6-4,098-926-2266
,Ｏｉｌｅ　ｂｙ　Ｚａｙｒａ　Ｒｅｓｏｒｔｓ,182170,yad373433,00082209,26.3077713,127.7610462,沖縄県中頭郡北谷町北谷1丁目12-18,098-921-7500
,Ｍｒ．ＫＩＮＪＯ　ｉｎ　西原インター（旧：ＳＥＫＡＩ　ＮＯ　ＳＡＫＩＨＡＭＡ）,167696,yad301137,00914151,26.25670925,127.7546545,沖縄県宜野湾市我如古2-1-12,098-917-0805
,コザを楽しむ一軒家貸切宿　ＫＡＥＲＵ　ＨＯＵＳＥ　＾,193937,,,26.3336891,127.8054302,沖縄県沖縄市仲宗根町36-5　ＫＡＥＲＵ　ＨＯＵＳＥ,080-4264-2135
,オールステイ胡屋,177014,yad319078,00910648,26.33620546,127.8034793,沖縄県沖縄市胡屋1-18-10,050-1721-4419
,ごーやー荘,32171,yad328996,00920712,26.33732132,127.8054229,沖縄県沖縄市胡屋1-5-32,050-1205-2758
,Ｕｎｉｔｙ,161043,,,26.3376875,127.8071608,沖縄県沖縄市住吉1-8-10　2F,080-6488-4968
,Ｏｋｉｎａｗａ　Ｃｉｔｙ　Ｈｏｔｅｌ（オキナワシティホテル）,172994,yad393832,00909607,26.3362561,127.8021116,沖縄県沖縄市胡屋1-8-12,098-923-2225
,タイムリッチ,50230,yad399024,00905064,26.33650571,127.802016,沖縄県沖縄市胡屋1-8-9,098-937-1192
,デイゴホテル,16300,yad384256,00913010,26.33841941,127.8030881,沖縄県沖縄市中央3-4-2,098-937-1212
,ゲストハウス　羊屋胡屋支店,161134,,,26.3345681,127.8001698,沖縄県沖縄市胡屋2-4-24　2F,090-1940-2329
,民宿　沖縄　久保田荘　＾,190651,,,26.3289407,127.8060642,沖縄県沖縄市胡屋5-18-3　民宿　沖縄　久保田荘,090-1235-4996
,庵ｓ　Ｙａｄｏ,182609,yad341315,00911751,26.3366596,127.799913,沖縄県沖縄市中央1-15-2,098-987-6256
,Ｏｎｅ　Ｍｏｒｅ　Ｔｉｍｅ,173130,,,26.33687397,127.7995578,沖縄県沖縄市中央1-23-2,090-7295-0277
,沖縄市コザ２世帯風住宅　＾,190848,,,26.3401902,127.8080316,沖縄県沖縄市住吉2-27-12　沖縄市コザ2世帯風住宅,090-9782-7396
,トリップショットホテルズ・沖縄コザ,161292,yad312284,00050498,26.3387844,127.8001447,沖縄県沖縄市中央2-6-47,070-5489-3969
,ホテル　ニューセンチュリー,17951,,,26.33246163,127.798408,沖縄県沖縄市胡屋2-1-43,098-933-5599
,サンライズホテル沖縄,18281,yad377441,00907765,26.33273383,127.7981747,沖縄県沖縄市胡屋2-1-46,098-933-0171
,ホテルコザ,162739,yad343596,00905284,26.33259084,127.7975594,沖縄県沖縄市上地2-1-29,098-932-0053
,アベニュー　コザ　ホテル,179089,yad303075,00915730,26.3395338,127.7995292,沖縄県沖縄市中央2-7-43 2F,080-6488-4239
,エンドレスサマー沖縄南店,172062,,,26.3399732,127.7995447,沖縄県沖縄市中央4-11-1　2Ｆ,080-3370-8089
,ゲストハウス　羊屋本店,84933,,,26.3318266,127.7968674,沖縄県沖縄市上地2-9-20,090-1940-2329
,コリン　ドゥ　ソレイユ／民泊,171389,,,26.3401835,127.7989173,沖縄県沖縄市中央2-7-32号浜比嘉ビル3Ｆ　Ｃｏｌｌｉｎｅ　ｄｕ　Ｓｏｌｅｉｌ,070-5415-0039
,クラウンホテル沖縄,72075,yad361123,00901356,26.33673615,127.7958193,沖縄県沖縄市上地4-1-51,098-933-2551
,民宿　さざんか,177774,yad393566,00914714,26.3401103,127.8136533,沖縄県沖縄市城前町18-18,080-6494-1679
,アンジュール,160878,,,26.3336486,127.7949981,沖縄県沖縄市上地2-5-30,098-930-6505
,ミュージックホテル　コザ　ｂｙ　コルディオプレミアム,182740,yad395598,00918323,26.3308501,127.7955984,沖縄県沖縄市上地2丁目20-22,098-970-8515 
,Ｄ－ａｎｄ　Ｓｔａｙ　ＨＨ．Ｙ　Ｒｅｓｏｒｔ　Ｏｋｉｎａｗａ　＾,169350,,,26.3246933,127.8092671,沖縄県沖縄市胡屋6-10-4　Ｄ-ａｎｄ　Ｓｔａｙ　ＨＨ．Ｙ　Ｒｅｓｏｒｔ　Ｏｋｉｎａｗａ,080-5195-1674
,ホテル　グラン　アリーナ（ＨＯＴＥＬ　Ｇｒａｎ　Ａｒｅｎａ）,183053,yad325728,,26.3308465,127.7948364,沖縄県沖縄市上地2-17-1,098-983-8002
,Ｄｕａｌ　Ｌｉｆｅ　Ｈｏｕｓｅ　Ｋｏｚａ,198540,yad375902,00922773,26.3288227,127.7956847,沖縄県沖縄市園田3-4-2-1,070-9013-6802
,よしだ　ホテル,72667,,,26.3293813,127.7952739,沖縄県沖縄市園田3-4-23,098-975-8681
,さとがえりワンネス,173208,yad309500,,26.32926642,127.794284,沖縄県沖縄市諸見里1-25-3　ワンネスサポート,098-923-0277
,Ｈｏｕｓｅ　Ｒｙｃｏｍ　５０８／民泊,174691,,,26.32426901,127.7991874,沖縄県中頭郡北中城村島袋508,070-6548-7532
,クラウンホテル沖縄アネックス,176782,yad305470,00909067,26.3227373,127.8089523,沖縄県沖縄市胡屋7-5-12,098-933-2777
,Ｇｏｙａリゾート,180756,yad358954,,26.32210397,127.8092574,沖縄県沖縄市胡屋7-6-16,098-963-7007
,ライカムファミリーリゾートホテル（旧ヒヤグンラナイリゾート）,173144,yad394339,00909144,26.322465,127.812295,沖縄県沖縄市比屋根7-2-15,098-988-7880
,ＨＯＴＥＬ　ＰＡＣＩＦＩＣ　ＶＩＥＷ（ホテルパシフィックビュー）,184260,,,26.3213909,127.8101174,沖縄県沖縄市比屋根7丁目6-7,098-930-1401
,Ｃｏｎｄｏｍｉｎｉｕｍ　和風邸　Ｏｋｉｎａｗａ　ｃｉｔｙ,176889,,,26.3230654,127.7958748,沖縄県沖縄市久保田1-27-23,098-959-2303
,ＨＯＴＥＬ　Ｐａｌｍ　Ｔｒｅｅ　Ｈｉｌｌ,172073,yad356263,00918837,26.3203113,127.8085223,沖縄県沖縄市比屋根7-20-11,098-932-1285
,Ｄｏｔ　Ｈｏｔｅｌ　Ｏｋｉｎａｗａ　（旧グリーンガーデンヒルズ）,167840,,,26.3302469,127.8209042,沖縄県沖縄市大里1-17-3,00-0000-0000
,ＨＯＴＥＬ　紅－ＢＩＮ－,177504,yad334138,00917549,26.3206897,127.8103006,沖縄県沖縄市比屋根7-9-17,090-9781-9313
,グリーンガーデンヒルズ　３Ｆ－１　＾,185480,,,26.3301676,127.8209376,沖縄県沖縄市大里1-17-3　Ｇｒｅｅｎ　Ｇａｒｄｅｎ　Ｈｉｌｌｓ　3Ｆ-1,03-4405-2361
,グリーンガーデンヒルズ　３Ｆ－２　＾,185481,,,26.3301676,127.8209376,沖縄県沖縄市大里1-17-3　Ｇｒｅｅｎ　Ｇａｒｄｅｎ　Ｈｉｌｌｓ　3Ｆ-2,03-4405-2361
,ＣＯＮＤＯＭＩＮＩＵＭ　紅－ＢＩＮ－,187324,,,26.3206089,127.8104907,沖縄県沖縄市比屋根7-9-33,090-9781-9313
,Ｐｕｒａｒｉ,182291,yad345250,00918838,26.3198486,127.808313,沖縄県沖縄市比屋根7-20-1,098-932-1285
,【心の宿　来客夢】日本語・中文対応／新築一軒家／整套新建別墅　＾,174053,,,26.3265074,127.7906681,沖縄県沖縄市諸見里3-33-20,090-6863-1818
,ベラビスタ　沖縄　　ＶｅｌｌａＢｉｓｔａ　ＯＫＩＮＡＷＡ／民泊,174263,,,26.3188031,127.8078279,沖縄県沖縄市比屋根7-21-7,080-6339-6615
,Ｈｏｔｅｌ　ＰＵＴＩＴ　ＢＥＬＬプチベル　＾,194675,,,26.3186466,127.8084043,沖縄県沖縄市比屋根7-22-9　Ｈｏｔｅｌ　ＰＵＴＩＴ　ＢＥＬＬ,098-932-1285
,Ｄ－ｓｔｙｌｅ　ＲＹＣＯＭ／民泊,173489,,,26.3180664,127.8039783,沖縄県中頭郡北中城村島袋1422-1　D-style RYCOM,080-5195-1674
,ＫＡＩ　Ｒｙｃｏｍ,192443,yad343491,00917681,26.318208,127.8086892,沖縄県沖縄市与儀2-11-2,098-979-7888
,レフ沖縄アリーナｂｙベッセルホテルズ｜ＲＥＦ沖縄アリーナ｜プール＆ＢＡＲ,187433,yad398378,00082534,26.33429749,127.7872187,沖縄県沖縄市字諸見里1766,098-933-6111
,Ｍｒ．ＫＩＮＪＯ　ｉｎ　ＲＹＣＯＭ　北中城,177650,yad303154,00914162,26.31899557,127.7959556,沖縄県中頭郡北中城村島袋400,098-923-1172
,＆Ｍｏｎｄｅ．Ｏｋｉｎａｗａ　Ａｒｅｎａ　Ｃｏｎｄｏｍｉｎｉｕｍ,188115,yad378500,,26.32703374,127.7859874,沖縄県沖縄市山内3-1-15,098-989-3880
,ＡＲＥＮＡ　ＨＯＴＥＬ　＾,175761,,,26.3284087,127.7849354,沖縄県沖縄市山内3-22-24-3,070-5410-1526
,いえろーはうす　＾,189430,,,26.3177251,127.8189618,沖縄県沖縄市比屋根6-34-8　Ｙｅｌｌｏｗ　Ｈｏｕｓｅ,090-3794-1458
,モンドミオ沖縄リゾートライカムヒルズ／民泊,199721,,,26.3139937,127.7990326,沖縄県中頭郡北中城村ライカム577　モンドミオ沖縄リゾートライカムヒルズ,090-9588-1809
,さくらや,181778,yad364204,,26.31832168,127.8213613,沖縄県沖縄市高原7-20-36,090-9078-1990
,ライカムクリスタルホテル,166486,yad322029,00904873,26.3127593,127.8080227,沖縄県沖縄市与儀2-19-11,098-933-3345
,ＢＥＬＬ　ＨＯＵＳＥ,172371,,,26.3467289,127.8255949,沖縄県沖縄市美里仲原町2-33,080-3989-2168
,ライフインゼファー　＾,186851,,,26.3212645,127.7845912,沖縄県沖縄市山内2-7-26　2Ｆ　ライフインゼファー,090-1122-7250
,ブルーオーシャン,163180,,,26.3117734,127.8144137,沖縄県沖縄市与儀1-15-10,098-911-3828
,エンズマリーナイン・ライカム,181170,yad324728,00919922,26.31112333,127.797559,沖縄県中頭郡北中城村（きたなかぐすくそん）字ライカム547　,098-989-7981
,オールステイ知花,178525,yad377294,00911846,26.35878218,127.8099806,沖縄県沖縄市知花2-18-21-1,050-1721-0751
,ライカムガーデンリゾート,168470,,,26.3108839,127.7916935,沖縄県中頭郡北中城村屋宜原796,098-933-3948
,青い山脈,181061,,,26.31986735,127.8317368,沖縄県沖縄市泡瀬4-11-6　砂川ビル3Ｆ,090-1945-9968
,りっちリゾンＡＷＡＳＥ,184101,yad339228,00913568,26.3201549,127.8323047,沖縄県沖縄市泡瀬2-1-2,098-989-5525
,アワセベイストリートホテル　２Ｆ　＾,194527,,,26.31464,127.8298649,沖縄県沖縄市泡瀬3-8-6　デュプレックスオオバ,070-8904-7745
,アワセベイストリートホテル４０２号室　＾,194525,,,26.3146366,127.8298634,沖縄県沖縄市泡瀬3-8-7　ウィビック泡瀬　4階,070-8904-7745
,アワセベイストリートホテル４０１号室　＾,194526,,,26.3146366,127.8298634,沖縄県沖縄市泡瀬3-8-7　ウィビック泡瀬　4階,070-8904-7745
,ゲストハウス　憩,162997,,,26.3551087,127.8291805,沖縄県うるま市赤道252-2,080-6493-7444
,春日観光ホテル,19935,,,26.35447366,127.8306438,沖縄県うるま市赤道179-1,098-973-1121
,ゲストハウス赤道直家,68621,,,26.3550736,127.8309187,沖縄県うるま市赤道256-3,098-974-0283
,ＳＰＩＣＥ　ＭＯＴＥＬ　ＯＫＩＮＡＷＡ,153641,,,26.3086368,127.7865162,沖縄県中頭郡北中城村喜舎場1066,098-923-1066
,グランド２１／民泊,173446,,,26.3588044,127.8352471,沖縄県うるま市高江洲1074-1,050-5444-6620
,Ｉｍａｇｅ　Ｍａｎｓｉｏｎ　＾,173758,,,26.3786847,127.8574931,沖縄県うるま市みどり町3-21-14-3Fイマージュハウス,080-9852-8558
,あげなテラス,172665,,,26.3738232,127.8550718,沖縄県うるま市安慶名1-7-31-3Ｆ,098-914-1143
,Ｉｎｆｉｎｉｔｙ　Ｒｅｓｏｒｔ　ＡＧＥＮＡ／民泊,175623,,,26.3789923,127.8506056,沖縄県うるま市安慶名2-22-5 ,070-5410-1526
,あげな　ｃｏｍｆｏｒｔ　ｈｏｕｓｅ,180763,,,26.37376751,127.8523004,沖縄県うるま市安慶名3-3-31,098-963-7007
,ペンション山城,56753,,,26.38870375,127.855741,沖縄県うるま市天願1664,080-3370-4612
,ハウス一番星,192819,,,26.3660088,127.8550892,沖縄県うるま市田場1240,098-989-7617
,Ｗｈｉｔｅ　Ｈｏｕｓｅ,180614,,,26.3665398,127.8499665,沖縄県うるま市平良川167　2F,090-9569-1365
,日本の家,180725,,,26.3665398,127.8499665,沖縄県うるま市平良川167　3Ｆ,090-9569-1365
,Ｓｍｉｌｅｓ　Ｒｙｕｋｙｕ　＾,173755,,,26.3703126,127.8449608,沖縄県うるま市西原311,080-9852-8558
,Ｍｒ．ＫＩＮＪＯ　ｉｎ　ＵＲＵＭＡ,172117,,,26.36423711,127.8557033,沖縄県うるま市田場1100-1,098-923-1032
,ホテルハーバー,108750,,,26.36463953,127.8499753,沖縄県うるま市平良川94,098-973-3720
,ゲストハウス　マリンビュー　＾,185313,,,26.3613566,127.8684853,沖縄県うるま市具志川2479-1　ゲストハウス　マリンビュー,080-1532-3120
,ＡＭＡＷＡＲＩ　ＨＯＴＥＬ,181746,,,26.3892515,127.8382901,沖縄県うるま市栄野比794-8,098-989-7617
,ＳＥＡＢＲＥＥＺＥ　ＨＯＵＳＥ　Ｅｘｔｒａ　ｆｏｒ　ｐｅｔｓ／民泊,174872,,,26.4001277,127.8502554,沖縄県うるま市昆布1362-2,080-9852-8558
,シマテラス／民泊,194681,,,26.3519305,127.8543357,沖縄県うるま市上江洲269-1-3Ｆ,080-3220-3610
,うるま　島テラス／民泊,169551,,,26.3519157,127.8543398,沖縄県うるま市字上江洲269-1,050-5444-6620
,Ｃｏｍｆｏｒｔ　Ｓｔａｙ,191498,,,26.394183,127.8326572,沖縄県うるま市字栄野比420-1,080-6485-4718
,Ｐｌｅａｓａｎｔ　Ｓｔａｙ,191497,,,26.3961368,127.8315376,沖縄県うるま市字栄野比421-5,080-6485-4718
,ホリデ－ハウス琉球庵,147032,,,26.40258339,127.7458706,沖縄県中頭郡読谷村座喜味67,098-958-0279
,Ｌａ　ｌｕｎａ,182015,,,26.4029707,127.7443014,沖縄県中頭郡読谷村字座喜味116,080-6494-7346
,ＲＯＯＭ　Ｂｉｏｔｏｐ　ＹＯＭＩＴＡＮ,181180,,,26.40372754,127.7505355,沖縄県中頭郡読谷村字座喜味2250-2　3Ｆ,090-1940-4884
,ミチ旅ホテル　読谷,172118,,,26.3970427,127.7571846,沖縄県中頭郡読谷村喜名204-2,098-918-4899
,ゲストハウス優,166917,,,26.40617043,127.7420766,沖縄県中頭郡読谷村座喜味249,098-989-7617
,ローヤル　ホテル,43839,,,26.38568026,127.7393205,沖縄県中頭郡読谷村字楚辺1315,098-956-2743
,【Ｂｏｎｄｓ　Ｈｏｕｓｅ】昔ながらの沖縄の建物をそのまま活かしたホッとする空間　＾,175159,,,26.3839391,127.7510415,沖縄県中頭郡読谷村字伊良皆151Bonds　House,098-936-8090
,Ｃｏｔｔａｇｅ　ｋｅ＇ｏｋｅ＇ｏ／民泊,191184,,,26.38391292,127.7510859,沖縄県中頭郡読谷村伊良皆423-Ｂ-74,080-2710-5269
,ＧＵＥＳＴ　ＨＯＵＳＥ　てぃんが〜ら,177636,,,26.3859263,127.7357233,沖縄県中頭郡読谷村楚辺1400-13,098-923-3607
,Ｓｅａ　Ｖｉｅｗ　Ｓｏｂｅ,180554,,,26.3859312,127.7351392,沖縄県中頭郡読谷村楚辺1400-54,090-5363-4500
,やちむんハウス,188067,,,26.4079883,127.7574098,沖縄県中頭郡読谷村座喜味2898-21,098-963-7007
,沖縄｜読谷｜時間を忘れさせる贅沢空間を貸切｜オーシャンビュー｜ＢＢＱ｜駐車場有｜１１名　＾,190176,,,26.3971214,127.7283359,沖縄県中頭郡読谷村波平2056-1　ミルキーウェイ　Ｂ,090-1122-7250
,ル・メゾン・ブランシェ,184817,,,26.41295456,127.7490137,沖縄県読谷村字座喜味2753-194,050-5369-8688
,ｖｉｌｌａ　ｓｅｒｅｎａ,193506,,,26.4129857,127.7490895,沖縄県中頭郡読谷村座喜味2753-121,050-5369-8688
,Ｌｅ　Ｍａｉｓｏｎ　Ｂｌａｎｃｈｅ　＾,174892,,,26.4130023,127.7490313,沖縄県中頭郡読谷村座喜味2753-194    A-21,080-9852-8558
,ＳＴＡＹ　ＫＡＲＡＴＥＬ　＾,171453,,,26.4058721,127.7304019,沖縄県中頭郡読谷村字波平259-1　ＳＴＡＹ　ＫＡＲＡＴＥＬ,090-5723-3557
,ＣＡＳＡ　ＢＯＮＩＴＡ,181470,,,26.392462,127.7260748,沖縄県中頭郡読谷村都屋144-4-11,098-963-7007
,ＢＯＳＣＯ　Ｙｏｍｉｔａｎ　Ｒｅｓｏｒｔ　Ｃｏｎｄｏｍｉｎｉｕｍ,177955,,,26.40227521,127.7260208,沖縄県中頭郡読谷村字波平1775-2,098-989-3880
,Ｐｅａｋｕｋｉ＇ｉ　Ｂｅａｒ＇ｓ　Ｇｕｅｓｔ　Ｈｏｕｓｅ　＾,171760,,,26.3970911,127.7247683,沖縄県中頭郡読谷村波平2421-3　　1Ｆ　Ｐｅａｋｕｋｉ＇ｉ　Ｂｅａｒ＇ｓ　Ｇｕｅｓｔ　Ｈｏｕｓｅ,090-8230-6486
,コンドミニアム・ｙｕｙｕｋｉ,172470,,,26.40448562,127.7269527,沖縄県中頭郡読谷村波平1709-1,098-989-4858
,メヌホット,164890,,,26.398588,127.7245755,沖縄県中頭郡読谷村波平2154-1,098-923-5715
,部屋からビーチ迄３秒水着姿で行けます。ピーチ専用シャワー室完備／民泊,173714,,,26.38720088,127.7261606,沖縄県中頭郡読谷村楚辺1973-5 ビーチハウス 読谷,080-4318-1717
,ＯｃｅａｎＮａｍｉｈｉｒａ,168750,,,26.4006433,127.7243644,沖縄県中頭郡読谷村波平1817-3　クレシア大当202号室,070-3800-8682
,Ｐａｎｏｒａｍａ,177909,,,26.3981867,127.7238061,沖縄県中頭郡読谷村波平2192-5,090-5255-1047
,ＧＵＥＳＴ　ＨＯＵＳＥ　ＳＵＮ　＾,174559,,,26.390842,127.7240897,沖縄県中頭郡読谷村都屋7-10,080-9852-8558
,マリナベイＴＯＹＡ,193044,,,26.3910437,127.7235875,沖縄県中頭郡読谷村都屋10-3B,080-4683-7975
,Ａｎｓｅ　Ｙｏｍｉｔａｎ　Ｔｏｙａ（２０２６年４月１日リニューアルオープン）,75254,,,26.39168218,127.7231524,沖縄県中頭郡読谷村都屋20,098-894-3850
,ラソール　シー　リゾート,192344,,,26.394305,127.7225634,沖縄県中頭郡読谷村都屋45-1,098-957-1100
,Ｃｏｎｄｏｍｉｎｉｕｍ　Ｔ－Ｒｏｏｍ（コンドミニアム　ティールーム）,153607,,,26.41694378,127.739028,沖縄県中頭郡読谷村長浜897,098-989-1172
,ＦＩＲＳＴ　ＳＴＲＥＥＴ　沖縄　読谷村オーシャンズ,151206,,,26.4173588,127.7387824,沖縄県中頭郡読谷村長浜864,098-989-7617
,ゲストハウス　桜,76901,,,26.41741858,127.7379368,沖縄県中頭郡読谷村長浜886,098-958-4055
,真常寺読谷サロン,193503,,,26.4156187,127.7316142,沖縄県中頭郡読谷村長浜1661-1,098-923-4611
,Ｍ＇ｓ　Ｒｅｓｏｒｔ　Ｙｏｍｉｔａｎ　Ａ棟　＾,170839,,,26.3718489,127.7446322,沖縄県中頭郡読谷村古堅938-1　Ｍ＇ｓ,070-5410-1526
,Ｍ＇ｓ　Ｒｅｓｏｒｔ　Ｙｏｍｉｔａｎ　Ｃ棟　＾,170841,,,26.3718489,127.7446322,沖縄県中頭郡読谷村古堅938-1　Ｍ＇ｓ　Ｒｅｓｏｒｔ　Ｙｏｍｉｔａｎ,070-5410-1526
,Ｖｉｌｌａ　Ｍａｈａｌｏ　＾,175770,,,26.41297322,127.7277062,沖縄県中頭郡読谷村字渡慶次1215-4,070-5410-1526
,Ｃｏｒａｌ　Ｇａｒｄｅｎ　７Ｐｏｏｌｓ,161164,,,26.4190364,127.7384268,沖縄県中頭郡読谷村長浜718-3,098-958-7565
,青と碧と白と沖縄,179405,,,26.4202454,127.7429207,沖縄県国頭郡恩納村真栄田3537-2,070-2631-6196
,Ｅ－ｈｏｒｉｚｏｎ　Ｒｅｓｏｒｔ　コンドミニアム　読谷,168798,,,26.41935894,127.7380813,沖縄県中頭郡読谷村長浜716-5,0980-43-5229
,モノクローム,184046,,,26.414777,127.7281923,沖縄県中頭郡読谷村字渡慶次1205-3,098-989-7617
,うちな〜んちゅも大歓迎★Ｇｕｅｓｔ　Ｈｏｕｓｅ　Ｋａｒａｈａｉ★《３ベットルーム／和室／》　＾,176070,,,26.420342,127.739146,沖縄県中頭郡読谷村字長浜131－3　ゲストハウスＫａｒａｈａｉ,080-3950-7599
,よみたんコンドホテルND,173137,,,26.41491141,127.7276778,沖縄県中頭郡読谷村渡慶次1184-1,098-923-1825
,アイランド・ブリーズ　＾,174045,,,26.42164727,127.744407,沖縄県恩納村真栄田3323-2 1Ｆ,090-2852-8499
,ＢＬＵＥ　ＳＴＥＡＫ　ＷＯＮＤＥＲ　ＮＡＧＡＨＡＭＡ,172426,,,26.4207585,127.7382407,沖縄県中頭郡読谷村長浜109,098-988-5505
,ユナイテッドリゾート読谷,145068,,,26.4175974,127.7305579,沖縄県中頭郡読谷村瀬名波538-1,098-989-3880
,ｃｏｍｆｏｒｔ　ＭＩＹＡＢＩ　ａｎｎｅｘ　ｏｎｅ　【１０１】　＾,169247,,,26.4135806,127.7250968,沖縄県中頭郡読谷村字渡慶次257-1,070-5410-1526
,ｃｏｍｆｏｒｔ　ＭＩＹＡＢＩ　ａｎｎｅｘ　ｏｎｅ　【１０２】　＾,169248,,,26.4135806,127.7250968,沖縄県中頭郡読谷村字渡慶次257-1,070-5410-1526
,ｃｏｍｆｏｒｔ　ＭＩＹＡＢＩ　ａｎｎｅｘ　ｏｎｅ　【２０１】　＾,169255,,,26.4135806,127.7250968,沖縄県中頭郡読谷村字渡慶次257-1,070-5410-1526
,ｃｏｍｆｏｒｔ　ＭＩＹＡＢＩ　ａｎｎｅｘ　ｏｎｅ　【２０２】　＾,169256,,,26.4135806,127.7250968,沖縄県中頭郡読谷村字渡慶次257ー1,070-5410-1526
,ｃｏｍｆｏｒｔ　ＭＩＹＡＢＩ　ａｎｎｅｘ　ｏｎｅ　【３０１】　＾,169257,,,26.4135806,127.7250968,沖縄県中頭郡読谷村字渡慶次　257-1,070-5410-1526
,ｃｏｍｆｏｒｔ　ＭＩＹＡＢＩ　ａｎｎｅｘ　ｏｎｅ　【３０２】　＾,169258,,,26.4135806,127.7250968,沖縄県中頭郡読谷村字渡慶次　257-1,070-5410-1526
,パンテオン,181434,,,26.4135806,127.7250968,沖縄県中頭郡読谷村渡慶次179-2,098-963-7007
,グランディスタイル　沖縄　読谷　ホテル＆リゾート,172439,,,26.41847965,127.731803,沖縄県中頭郡読谷村字瀬名波571番1,098-987-8300
,宿　ＴＡＭＡ,167955,,,26.42214657,127.7443983,沖縄県国頭郡恩納村真栄田3323-1,098-989-5713
,Ｍ＇ｓ　Ｒｅｓｏｒｔ　Ｙｏｍｉｔａｎ　Ｂ棟　＾,170840,,,26.3693534,127.7463565,沖縄県中頭郡読谷村古堅938-1　Ｍ＇ｓ　Ｒｅｓｏｒｔ　Ｙｏｍｉｔａｎ　Ｂ棟,070-5410-1526
,Ｎｉｒａｉ　Ｂｅａｃｈ　Ｖｉｌｌａ　＾,185479,,,26.4159589,127.727408,沖縄県中頭郡読谷村渡慶次1177-3　Ｎｉｒａｉ　ｂｅａｃｈ　ｖｉｌｌａ,080-6496-2044
,ＲｅｓｏｒｔＴｏｋｅｓｈｉ,168751,,,26.41515369,127.7261116,沖縄県中頭郡読谷村渡慶次1126-1,070-3800-8682
,沖縄ゲストハウスＰ’ｓＨＯＵＳＥ,172888,,,26.3701581,127.7557651,沖縄県中頭郡読谷村比謝矼73-3　3階,098-800-1331
,ＬＩＦＥ　ＩＳ　Ａ　ＪＯＵＲＮＥＹ,56805,,,26.42203479,127.7400615,沖縄県中頭郡読谷村長浜30,5018086666
,ＢＬＵＥ　ＰＯＩＮＴ　ＯＫＩＮＡＷＡ,180042,,,26.42215964,127.7400677,沖縄県中頭郡読谷村長浜3-3,050-1808-6666
,Ｒｏｕｔｅ　６　Ｉｎｎ,178308,,,26.42183451,127.7377274,沖縄県中頭郡読谷村長浜173,098-989-0694
,セレヴィ読谷Ａ棟・Ｂ棟,197869,,,26.42266593,127.7405229,沖縄県中頭郡読谷村字長浜1-4,050-1721-0751
,ホテル　むら咲むら,108272,,,26.40742769,127.7186886,沖縄県中頭郡読谷村高志保1020-1,098-958-7871
,Ｅｄｉ　Ｂｌｕｅ,135414,,,26.42115702,127.7337815,沖縄県中頭郡読谷村長浜285-1,090-6858-2255
,風が集まる小さなお宿　ｍｕｃｈｏｓ．ｖｉｅｎｔｏｓ,172629,,,26.42140281,127.7323272,沖縄県中頭郡読谷村瀬名波714-1,090-5670-6083
,Ｃｈｕｌａｘ沖縄読谷【デザイナーズコンドミニアムホテル】,182454,,,26.42269974,127.7335437,沖縄県中頭郡読谷村瀬名波763-3,098-989-3880
,コンフォート雅,178478,,,26.4201908,127.7269965,沖縄県中頭郡読谷村渡慶次158-1,098-958-6605
,沖縄　女性専用　癒しの宿　みるく家,68233,,,26.42209575,127.7293624,沖縄県中頭郡読谷村瀬名波160,090-4207-4456
,プラウディアタウン,189240,,,26.4208075,127.7259066,沖縄県中頭郡読谷村渡慶次208,050-5469-8250
,ラ・クレ・ドール,181212,,,26.4177308,127.7197808,沖縄県中頭郡読谷村儀間100-4,098-963-7007
,ラフアンドピース,109460,,,26.42142351,127.7232019,沖縄県中頭郡読谷村儀間159-1,098-958-5068
,シェラトン沖縄サンマリーナリゾート,13554,,,26.46087615,127.8123463,沖縄県国頭郡恩納村冨着66-1,098-965-2222
,民宿　冨士,19351,,,26.45626271,127.8097272,沖縄県国頭郡恩納村冨着129-5,098-964-4326
,ＳＥＡ　ＢＡＳＥ　Ｏｎｎａ｜【圧巻のビーチフロント】／民泊,195797,,,26.4553692,127.8083649,沖縄県国頭郡恩納村冨着165,080-2462-0557
,ＮＥＷ　ＬＩＦＥ　ＢＥＡＣＨ　＾,186275,,,26.4532546,127.8058161,沖縄県国頭郡恩納村冨着1510-1　1Ｆ　Ｎｅｗ　Ｌｉｆｅ　Ｍａｎｓｉｏｎ　101,080-3984-0033
,Ｓｅａ　Ｓｔａｙ　Ｏｋｉｎａｗａ　シーステイ沖縄,165955,,,26.4666346,127.8254183,沖縄県国頭郡恩納村谷茶16-3,090-7227-8355
,コーラルパレス恩納　ｂｙ　サンセットアベニュー,183064,,,26.4533251,127.8074531,沖縄県国頭郡恩納村冨着749-1,098-894-3597
,ビーチルーム,151289,yad368594,00002381,26.4670291,127.8260349,沖縄県国頭郡恩納村谷茶152,050-5846-7090
,海の見える恩納村リゾートマンション／民泊,174434,,,26.45268169,127.8064961,沖縄県国頭郡恩納村冨着554-1,050-5444-6620
,プリンスプラージュＯＫ２／民泊,170107,,,26.4526418,127.8064995,沖縄県国頭郡恩納村冨着554-1　プリンスプラージュ　903号室,050-5444-6620
,Ｂｌｕｅ　Ｒｅｌａ　Ｌｕｘｅ　Ｒｅｓｏｒｔ　Ｏｋｉｎａｗａ,183793,yad320240,00051480,26.45299264,127.8096626,沖縄県国頭郡恩納村冨着816-1,098-989-8575
,ＴＩＭｅＳＣＡＰＥ　－ｔａｎｃｈａ－,196500,yad395578,00920150,26.4687826,127.8281685,沖縄県国頭郡恩納村谷茶159-2,03-5332-5947
,ペンション　ムーンヴィラ,69353,yad322406,,26.45106595,127.80375,沖縄県国頭郡恩納村前兼久1006-2,098-965-7761
,Ｂｅａｃｈ　Ｐｌｕｓ,176780,,,26.4691115,127.8286637,沖縄県国頭郡恩納村谷茶168　2Ｆ,080-7004-2470
,ザ・ムーンビーチ　ミュージアムリゾート,15483,yad323277,00030182,26.4507743,127.8030306,沖縄県国頭郡恩納村字前兼久1203,098-965-1020
,Ｆｌａｔ　Ｐｅａｃｅ　Ｃｈａｉｒ　Ｈｏｕｓｅ　＾,185826,,,26.4508818,127.8045666,沖縄県国頭郡恩納村前兼久972-1　フラットピースチェアーハウス,080-2526-0718
,グランディオーソ沖縄プールヴィラ恩納９,184110,yad386176,00921889,26.46843885,127.8288292,沖縄県国頭郡恩納村谷茶100-1,050-3138-6036
,沖縄県恩納村フラットピースチェアハウス〜ムーンビーチ〜　＾,168915,,,26.4507113,127.8044607,沖縄県国頭郡恩納村字前兼久972－1　フラットピースチェアハウス206,090-2652-9603
,ＰＧＭホテルリゾート沖縄（２０２６年４月２５日　先行営業開始）,197827,yad380034,,26.4543182,127.8167329,沖縄県国頭郡恩納村字冨着1043,098-960-4150
,ホテル　コンドミニアム　土花土花,158897,yad357036,00050109,26.4502852,127.8041128,沖縄県国頭郡恩納村前兼久241-3,098-965-1666
,ザ・ペリドット　スマートホテル　タンチャワード,158440,yad339615,00902392,26.46576081,127.8289777,沖縄県国頭郡恩納村谷茶1092-1,098-927-1100
,還元ホテル　名護東江,198477,,,26.5915575,127.9775272,沖縄県名護市東江1-3-19,0980-43-7228
,ホテル　アイオライト,176561,yad337360,,26.59041281,127.9777974,沖縄県名護市港2-5-1,098-995-6190
,コンドミニアムホテル　リッカ　ｉｎ　Ｎａｇｏ,160883,yad387958,00912910,26.5912077,127.9799966,沖縄県名護市大南1-1-3-1号,0980-43-6118
,Ａｄａｎ　Ｈｏｔｅｌ,177015,yad373343,00915466,26.591183,127.9807228,沖縄県名護市港1-14-1,080-3541-8712
,ＡＬＬ　ＦＲＩＥＮＤＳ,158700,yad343996,,26.5902271,127.9813962,沖縄県名護市城1-11-15　サンライフ名護201号室,090 1941 1725
,民宿Ｐｏｎｏ－Ｐｏｎｏ,161296,,,26.592591,127.9822437,沖縄県名護市大西1-18-5,090-9565-2722
,Ｍｒ．ＫＩＮＪＯ　ｉｎ　ＧＵＳＵＫＵ,168479,,00904419,26.59034633,127.982865,沖縄県名護市城1-2-10,098-043-0880
,家族や友人で沖縄本島北部の観光拠点に最適！丸々新築一軒貸し　＾,175013,,,26.5877786,127.9833608,沖縄県名護市城2-15-6,090-6714-9854
,ＫＡＣＨＡ　＾,176102,,,26.5962465,127.9693964,沖縄県名護市宮里三-6-21号,080-9852-8558
,華茶,181438,yad362883,,26.5962465,127.9693964,沖縄県名護市宮里3-6-21,098-963-7007
,フェニックスパークホテル,183203,yad372508,00913649,26.5945012,127.9679992,沖縄県名護市宮里3-29-12,0980-43-6607
,Ｃｏｚｙ　Ｈｏｕｓｅ　Ｏｋｉｎａｗａ,164729,yad339762,,26.58188521,127.9841831,沖縄県名護市東江5-9-6,080-6483-1596
,グランメール東江　＾,170525,yad303851,,26.5815069,127.9838166,沖縄県名護市東江5-8-10,090-9586-7854
,名護パークサイドコンドミニアムＴＫステイ,183758,yad315844,00913713,26.5979609,127.9660011,沖縄県名護市宮里586-7,098-967-7112
,ＵＮＴＥＮ　ＩＮＮ,196242,yad360767,,26.5949982,127.9899189,沖縄県名護市大中3-1-5,092-292-2431
,民宿　沖縄時間,84887,,,26.59609183,127.9642671,沖縄県名護市宇茂佐914-5,098-052-0686
,Ｃｏｎｄｏｍｉｎｉｕｍ　ＮＯＯＳＡ（コンドミニアム　ヌーサ）,172471,yad378949,00050807,26.58021487,127.9837086,沖縄県名護市東江5-13-12,098-917-2119
,マグノリアスイート　ｉｇｕｓａ　ｖｉｌｌａ,168367,,,26.5818254,127.9865965,沖縄県名護市東江3-20-13,03-6721-1486
,名護ビーチサイドハウス　＾,184934,yad358922,,26.5801897,127.9839303,沖縄県名護市東江5-13-6　イルカ（ｉｒｕｋａ）,050-1790-1618
,Ｂｅａｃｈ　ｓｉｄｅ　ｈｏｔｅｌ　ＹＡＭＯＲＩＹＡＮＯＮＩＫＡＩ,165591,,,26.5796839,127.9837412,沖縄県名護市東江5-14-24　2Ｆ,980523008
,民泊　高那／民泊,173970,,,26.5987969,127.9905315,沖縄県名護市大北1-26-14,090-3211-1791
,"New Normal Hotel in NAGO,ニューノーマルホテルイン名護",187251,yad392896,00914543,26.6046598,127.9706269,沖縄県名護市字宮里949,0980-43-7815
,還元ホテル　名護大宮（旧：ＨＯＴＥＬ　ＨＯＵＫＬＥＡ）,178185,yad321949,00910613,26.60590627,127.9790165,沖縄県名護市宮里7-2-69,070-3801-4011
,アダンリゾート　Ｗｉｎｂｅｌｌ　Ｏｋｉｎａｗａ　Ｎａｇｏ　Ｃｏｒａｌｖｉｅｗ,179045,,,26.5784396,127.9841425,沖縄県名護市東江5-18-7,0980-43-0073
,フィッシングステップ名護の宿／民泊,195320,,,26.5781826,127.9846425,沖縄県名護市東江5-17-10　町田アパート303号室,070-2616-2174
,ゲートイン名護　＾,170577,yad399556,00917751,26.5770584,127.9836925,沖縄県名護市東江5-23-23　Ｇａｔｅ　ｉｎｎ　Ｎａｇｏ,090-9782-6327
,すみか　－ｓｕｍｉｃａ－,160987,yad360174,,26.60812999,127.9777294,沖縄県名護市為又324-3,0980-43-9770
,ＹＡＮＢＡＲＵ・ＳＴＡＹ　ちゅら宿,179411,yad336898,00915516,26.59593457,127.9570872,沖縄県名護市宇茂佐268,0980-43-7855
,ＺＡ３１８　アノージュ名護　＾,195619,,,26.6105163,127.9765375,沖縄県名護市字為又11745番地59,080-3592-6689
,ＺＡ２２８　シエラリゾート名護　＾,195680,,,26.6105163,127.9765375,沖縄県名護市為又1174-60,080-3592-6689
,ｉｍａｃｏｃｏ,180612,,,26.57385445,127.985218,沖縄県名護市世冨慶517-12,090-9569-1365
,ＹＯＦＵＫＥ　ＨＯＵＳＥ　＾,169730,,,26.5737393,127.9850447,沖縄県名護市世冨慶517-13　Ｒｉｖｅｒｓｉｄｅ　Ｙｏｆｕｋｅ　Ⅰ,050-5360-0401
,ＨＯＴＥＬ　Ｐｒｏｇｒｅｓｓ　ｉｎｎ　名護　ＭＡＴＡＢｅｅ,189045,yad357137,00917337,26.6110309,127.9756862,沖縄県名護市為又492-144,070-3802-8430
,恩納リゾート,187914,,,26.5958272,127.9552629,沖縄県名護市宇茂佐318-2,092-292-2431
,Ｂｅａｃｈ　ｆｒｏｎｔ　ｓｔｕｄｉｏ　ＮａｇｏＮａｇｏ,191733,,,26.5958272,127.9552629,沖縄県名護市宇茂佐318-3,098-989-7617
,ゲストハウスウムサン,167372,,,26.5971537,127.9551618,沖縄県名護市宇茂佐340,090-1870-5590
,Ｖｉｌｌａ　ｓｕｉｔｅ　ＨＡＮＡ　＾,185399,,,26.5725557,127.9875401,沖縄県名護市世冨慶441-8　ヴィライースト華,090-2519-7726
,Ｍａｈｉｎａ　Ｔｅｒｒａｃｅ,183535,,,26.5995653,127.9530381,沖縄県名護市宇茂佐420-3,080-6483-1596
,Ｂｉｉｍａｔａ　ｈｏｕｓｅ,171878,,,26.61507068,127.9792563,沖縄県名護市為又742-78,0980-53-7701
,ＺＡ０９８　ｖｉｌｌａ名護の森　＾,195513,,,26.6167397,127.9748277,沖縄県名護市為又1174-5,080-3592-6689
,ＮＡＧＯ　Ｓａｋｕｒａ　Ｒｅｓｏｒｔ　Ｉｎｎ　＾,169912,,,26.6158658,127.9689825,沖縄県名護市為又1219-219　ＮＡＧＯ　Ｓａｋｕｒａ　Ｒｅｓｏｒｔ　Ｉｎｎ,090-5743-7039
,沖縄素泊まり宿　やんばるふくろう,144968,,,26.6045974,127.9510222,沖縄県名護市屋部205-3,0
,ゲストハウスミルク,172325,,,26.6027419,127.9497981,沖縄県名護市屋部324,090-1174-7630
,ハイチューハウス,181012,,,26.60200847,127.9491397,沖縄県名護市屋部358-1,080-6805-8687
,ハイビス　ヤブ,180407,,,26.60135105,127.9487637,沖縄県名護市屋部565,8083758203
,ホテル　ヤンバルニア,164795,,,26.601392,127.9487677,沖縄県名護市屋部538-2,050 7122 9602
,ＨＹＧＧＥ　ｂｉｉｍａｔａ,165912,,,26.61766686,127.9668389,沖縄県名護市為又1219-244,0980-43-5221
,Ｌｉｔｔｌｅ　Ｉｓｌａｎｄ　Ｏｋｉｎａｗａ　名護,164590,,,26.61796964,127.9673112,沖縄県名護市為又1219-376,0980-54-6505
,Ｓｅｖｅｎ　Ｒｅｓｉｄｅｎｃｅ　Ｍｕｓｉｃ（セブンレジデンスミュージック）,166926,,,26.6013809,127.9480649,沖縄県名護市屋部569,080-7845-4373
,ＡＫＥＭＩＯ－ＨＯＵＳＥ　＾,194574,,,26.5670668,128.0022873,沖縄県名護市世冨慶507-12　ＡＫＥＭＩＯーＨＯＵＳＥ,080-4981-7061
,月の道テラス,172430,,,26.6566179,127.88246,沖縄県国頭郡本部町大浜862-49,050-3503-2802
,Ｍｒ．ＫＩＮＪＯ　ｉｎ　ＭＯＴＯＢＵ　ＯＣＥＡＮ　ＴＥＲＲＡＣＥ,167689,,,26.6571757,127.883325,沖縄県国頭郡本部町大浜872-5,0980-43-0063
,ロワスタイル,166040,,,26.6542459,127.8815407,沖縄県国頭郡本部町大浜854-7,098-989-8083
,Ｃｈａｒｍｉｎｇ　ｐｒｉｖａｔｅ　ｈｏｕｓｅ　＾,174568,,,26.6542474,127.8816348,沖縄県国頭郡本部町字大浜854-7,080-9852-8558
,旅の宿　ＳＴＡＹ大浜　　＾,171018,,,26.6573128,127.8853182,沖縄県国頭郡本部町字大浜882-3　コーポ牧志2階,090-3790-3422
,アーマン,193052,,,26.6555085,127.8845114,沖縄県国頭郡本部町大浜874-7,090-9798-1177
,Ｆ－ｔｅｉ（エフ邸）　＾,169943,,,26.6566134,127.8854799,沖縄県国頭郡本部町大浜596-1　Ｆ-ｔｅｉ,090-2598-8350
,パライソ　デ　モトブ,177452,,,26.657492,127.8865022,沖縄県国頭郡本部町谷茶436-1,070-5400-4829
,ＺＡ１８４　Ｒｅｓｏｒｔ　Ｖｉｌｌａ　Ｎ＆Ｎ　＾,195630,,,26.6534502,127.8835119,沖縄県国頭郡本部町大浜498,080-3592-6689
,ゆひな,167719,,,26.6579123,127.8868707,沖縄県国頭郡本部町谷茶436-11,0980-43-0073
,ＲＩＺＯＺＡＩＺＥＮ　ＭＯＴＯＢＵ　Ｂ,182076,,,26.6587204,127.8869703,沖縄県国頭郡本部町谷茶453-17,0980-43-5229
,ＲＥＳＯＲＴ　ＶＩＬＬＡ　ＭＯＴＯＢＵ,182077,,,26.6587204,127.8869703,沖縄県国頭郡本部町谷茶453-3,03-6432-0839
,ＲＩＺＯＺＡＩＺＥＮ　ＭＯＴＯＢＵ　Ｄ,182078,,,26.6587204,127.8869703,沖縄県国頭郡本部町谷茶453-4,0980-43-5229
,白の楽園　ＶＩＬＬＡ　ＢＬＡＮＣ　Ｅ,196860,,,26.6587204,127.8869703,沖縄県国頭郡本部町谷茶453-5,0980-43-5229
,白の楽園　ＶＩＬＬＡ　ＢＬＡＮＣ　Ｆ,196861,,,26.6587204,127.8869703,沖縄県国頭郡本部町谷茶453-6,0980-43-5229
,白の楽園　ＶＩＬＬＡ　ＢＬＡＮＣ　Ｇ,196862,,,26.6587204,127.8869703,沖縄県国頭郡本部町谷茶453-7,0980-43-5229
,白の楽園　ＶＩＬＬＡ　ＢＬＡＮＣ　Ｈ,196863,,,26.6587204,127.8869703,沖縄県国頭郡本部町谷茶453-8,0980-43-5229
,サンフラワー健堅,172370,,,26.6517434,127.8807852,沖縄県国頭郡本部町健堅35-4,080-6499-3975
,ｒｅｓｏｒｔ　＆　ｖｉｌｌａ　ＲＹＵＮＯＮ【りゅのん／リュノン／琉穏】　＾,170905,,,26.6531154,127.8860811,沖縄県国頭郡本部町大浜363-1　ｒｅｓｏｒｔ　＆　ｖｉｌｌａ　ＲＹＵＮＯＮ,080-6499-5585
,隠れ宿ＴＯＭＡＲＯ。　＾,195685,,,26.6581206,127.8892594,沖縄県国頭郡本部町字谷茶29-40　TOMARO,080-6487-8943
,谷茶庵,180323,,,26.6575141,127.8897428,沖縄県国頭郡本部町谷茶53,090-2589-6044
,Ｄｏ　ｐｉ－ｃａｎ,182469,,,26.6482645,127.8810523,沖縄県国頭郡本部町字健堅120-1,0980-43-6946
,もとぶの宿　うらら,182295,,,26.6588171,127.8917125,沖縄県国頭郡本部町谷茶28-1　2Ｆ,090-0000-0000
,ゲストハウス琉遊,109413,,,26.65901755,127.8922055,沖縄県国頭郡本部町谷茶28-11,0980-43-7248
,ホテル美らなリゾートもとぶ,188094,,,26.6637394,127.8908285,沖縄県国頭郡本部町字渡久地861-1,0980-47-3855
,ＫＥＮＫＥＮ　Ｒｅｔｏ　Ｐｒｉｖａｔｅ　Ｖｉｌｌａ,173067,,,26.64828539,127.8867077,沖縄県国頭郡本部町健堅582,5088810983
,ＫＥＮ　ＫＥＮ　ＶＩＬＬＡ　ＹＵＵＭＯＤＯＲＯ,180294,,,26.6476731,127.8852905,沖縄県国頭郡本部町健堅212番地,098-960-0056
,Ｍａｒｉｎｅ＆Ｇｕｅｓｔ　Ｈｏｕｓｅ　美Ｃｈｕｒａ,162884,,,26.6468579,127.8807214,沖縄県国頭郡本部町健堅1062,0980-43-6832
,お宿石なぐ,165866,,,26.6617148,127.8928007,沖縄県国頭郡本部町渡久地779,0980-47-3911
,た〜んたわん,162861,,,26.66451023,127.8914578,沖縄県国頭郡本部町渡久地870-1,098-989-7617
,モアナハウス　＾,186887,,,26.64852769,127.8733884,沖縄県国頭郡本部町瀬底2464-3　Ｍｏａｎａ　Ａｎｇｅｌｓ,080-9852-8558
,モアナハウス,183731,,,26.6484973,127.8734009,沖縄県国頭郡本部町瀬底2646-3,098-963-7007
,美ら海かふうテラス,198520,,,26.6471754,127.8865561,沖縄県国頭郡本部町健堅604-1,080-9999-7609
,オーシャンテラス瀬底１０１　＾,170129,,,26.64890363,127.8723594,沖縄県国頭郡本部町字瀬底2593　Ｏｃｅａｎ　Ｔｅｒｒａｃｅ　Ｓｅｓｏｋｏ　101,080-4086-2001
,ファミリーヴィラ　トレードウインド,148915,,,26.66346307,127.8927628,沖縄県国頭郡本部町渡久地697-1,0980-43-6171
,ＣｏＣｏ　Ｒｅｓｏｒｔ　Ｓｅｓｏｋｏ,181301,,,26.648265,127.872871,沖縄県国頭郡本部町瀬底2639-1,090-2526-6122
,ＺＡ３９１　オーシャンテラス瀬底　４０３　＾,195620,,,26.6486391,127.8721499,沖縄県国頭郡本部町瀬底2593,080-4086-2001
,ゲストハウスＡＬＯＡＬＯ,151502,,,26.6482909,127.8719304,沖縄県国頭郡本部町瀬底2530-1,0980-43-5859
,Ａｒｔｓ　Ｈｏｕｓｅ,184429,,,26.6535572,127.8943983,沖縄県国頭郡本部町辺名地11,090-9515-9972
,ゲストハウス　なんで家ねん,147708,,,26.66060306,127.8952501,沖縄県国頭郡本部町字渡久地4-7　,090-6000-2112
,ジュゴンの宿　（旧：花ぬ元　辺名地の宿）,108262,,,26.65465972,127.895197,沖縄県国頭郡本部町辺名地338,090-8201-3224
,癒しの宿　みちくさ,180992,,,26.6619555,127.894992,沖縄県国頭郡本部町渡久地311,090-2512-2740
,コテージむいのちち,179897,,,26.6556484,127.8959271,沖縄県国頭郡本部町辺名地265,098-894-3597
,フラココ,167557,,,26.64375488,127.8815933,沖縄県国頭郡本部町崎本部4751-1,080-6499-4113
,碧の海,187450,,,26.6598896,127.8966555,沖縄県国頭郡本部町渡久地19-3,050-5369-8688
,Ｃｙ　ＭＯＴＯＢＵ,196155,,,26.64352436,127.8844009,沖縄県国頭郡本部町崎本部4825,080-2582-4051
,ビィラピシーヌ瀬底,181864,,,26.6502989,127.8670148,沖縄県国頭郡本部町瀬底1605,098-989-7617
,宿や　あん美らさ　瀬底　＾,194534,,,26.6477572,127.8687109,沖縄県国頭郡本部町瀬底528　プライベートヴィラ,080-1193-0057
,ＳＥＳＯＫＯ　ＭＯＤＥＲＮ,180555,,,26.6477453,127.8686611,沖縄県国頭郡本部町瀬底528,080-9649-2239
,Ｅ－ｈｏｒｉｚｏｎ　Ｒｅｓｏｒｔ　Ｐｒｅｍｉｕｍ瀬底Ｄ,183821,,,26.64611587,127.8699622,沖縄県国頭郡本部町字瀬底2268-15,0980-43-5229
,Ｅ－ｈｏｒｉｚｏｎ　Ｒｅｓｏｒｔ　Ｐｒｅｍｉｕｍ瀬底Ｅ,183822,,,26.64612546,127.8698978,沖縄県国頭郡本部町字瀬底2268-16,0980-43-5229
,ＨＯＴＥＬ　Ｅ－ｈｏｒｉｚｏｎ　Ｒｅｓｏｒｔ　コンドミニアム瀬底,149448,,,26.64604174,127.8698771,沖縄県国頭郡本部町瀬底2268-1,0980-43-5229
,Ｓｅｓｏｋｏ　Ｃｈｉｌｌ　Ｔｉｍｅ,197917,,,26.64645,127.8693623,沖縄県国頭郡本部町字瀬底2263-3,080-8420-8934
,Ｅ－ｈｏｒｉｚｏｎ　Ｒｅｓｏｒｔ　Ｐｒｅｍｉｕｍ瀬底Ｃ,183820,,,26.64595285,127.8699622,沖縄県国頭郡本部町字瀬底2268-14,0980-43-5229
,ＳｅａＳｉｄｅＨｏｕｓｅ　ＰｏｌｅＰｏｌｅ＆Ｈｏｌｉｄａｙ,182044,,,26.6711948,127.8898126,沖縄県国頭郡本部町浜元62,050-3749-6060
,旅宿　もすらのたまご,168655,,,26.6461804,127.8695842,沖縄県国頭郡本部町瀬底2267-1,090-6861-8982
,Ｅ－ｈｏｒｉｚｏｎ　Ｒｅｓｏｒｔ　Ｐｒｅｍｉｕｍ瀬底Ｂ,183819,,,26.64584737,127.8699193,沖縄県国頭郡本部町字瀬底2268-13,0980-43-5229
,やんばるの宿,151497,,,26.6472576,127.8682167,沖縄県国頭郡本部町瀬底500,098-047-3073
,癒しの宿　山原・みなみ風,179390,,,26.6655031,127.8963297,沖縄県国頭郡本部町野原125-6,0980-47-2337
,Ｅ－ｈｏｒｉｚｏｎ　Ｒｅｓｏｒｔ　Ｐｒｅｍｉｕｍ瀬底Ａ,183818,,,26.6455501,127.8700695,沖縄県国頭郡本部町字瀬底2268-12,0980-43-5229
,ペンション　波,165576,,,26.64220481,127.8844857,沖縄県国頭郡本部町崎本部5025-2,980436662
,瀬底島ゲストハウス　かふぅ村,147797,,,26.6488789,127.8663796,沖縄県国頭郡本部町瀬底1537,080-5093-3234
,あさごや沖縄リゾート,183047,,,26.670788,127.8913957,沖縄県国頭郡本部町字浜元81,0980-43-7910
,ｐｏｕｒ　ｖｏｕｓ,177840,,,26.64197256,127.8838378,沖縄県国頭郡本部町崎本部4938-1,0980-47-5010
,ｅｍｍａ　ｇｒｅｅｎ　＾,190107,,,26.64686413,127.8678369,沖縄県国頭郡本部町瀬底478-3　ｅｍｍａ　ｇｒｅｅｎ,070-5410-1526
,マレアリゾート・モトブ,168502,,,26.64163996,127.8816057,沖縄県国頭郡本部町崎本部4696-1,0980-43-5915
,コテージＣＡＮＡＣ,76420,,,26.66264226,127.8983772,沖縄県国頭郡本部町渡久地286-8,0980-47-2233
,宿　かりそめ,188231,,,26.64181638,127.8843414,沖縄県国頭郡本部町字崎本部4940-6-Ｃ,080-4280-0471
,ペンション島風,188258,,,26.6416982,127.8842279,沖縄県国頭郡本部町崎本部5020-2,090-3326-9341
,Ｖｉｌｌａ　ＳＥＲＥＮＯ　ＭＯＴＯＢＵ,188383,,,26.6416982,127.8842279,沖縄県国頭郡本部町崎本部5020-2,080-3476-8549
,ＲｅｓｏｒｔＶｉｌｌａ－ＫＡＰＵＫＡ　瀬底島,192749,,,26.64453266,127.8702295,沖縄県国頭郡本部町字瀬底高平台2867-1,0980-43-1870
,サンセットの宿ペンション　美らＳＵＮ,177703,,,26.67261184,127.8891677,沖縄県国頭郡本部町浜元189,0980-43-6886
,星と水の宿　瀬底島,197901,,,26.6470504,127.8667224,沖縄県国頭郡本部町瀬底416,08-2247-8831
,瀬底島　家人寿,158316,,,26.6457105,127.8676807,沖縄県国頭郡本部町瀬底215,0980-47-5300
,ｌａ・ｏｈａｎａ,183719,,,26.6467755,127.8665049,沖縄県国頭郡本部町瀬底412,098-989-3880
,さんにんリゾート,168383,,,26.67030892,127.8944038,沖縄県国頭郡本部町字浜元759,080-3832-3232
,Ｔｗｉｌｉｇｈｔ　Ｈｉｌｌｓ　＾,186582,,,26.66473175,127.8992261,沖縄県国頭郡本部町野原675-1　Ｔｗｉｌｉｇｈｔ　Ｈｉｌｌｓ,090-9785-4082
,瀬底島Ｄコテージ,188745,,,26.6455755,127.8668364,沖縄県国頭郡本部町瀬底234,8067815406
,瀬底ヴィラ,167251,,,26.64807255,127.8641865,沖縄県国頭郡本部町瀬底1258,0980-43-0073
,Ｖｉｌｌａ・Ｃｈａｒｍｅ,176696,,,26.63978279,127.8827901,沖縄県国頭郡本部町字崎本部4655,090-6865-3534
,ちっちゃなお宿　風の丘,108188,,,26.66574751,127.8998853,沖縄県国頭郡本部町野原659-1,0980-47-5330
,古民家ゲストハウス家守（や〜る〜）,163168,,,26.6455355,127.8653531,沖縄県国頭郡本部町瀬底304,090-9577-9761
,ＦＯＵＲ　ＲＯＯＭＳ,151541,,,26.64274134,127.8681752,沖縄県国頭郡本部町瀬底4588-1,0980-47-3404
,ｖｉｌｌａ　ＰＩＬＩＮＡ,183692,,,26.64676464,127.8629231,沖縄県国頭郡本部町字瀬底1245-1,0980-43-5229
,宿屋オハナ,172981,,,26.64478813,127.8646058,沖縄県国頭郡本部町瀬底107-4,090-9785-3550
,Ｐａｐｉｌｌｏｎ　パピヨン,187185,,,26.64050408,127.870179,沖縄県国頭郡本部町字瀬底3282-1,098-963-7007
,味らく田,177699,,,26.66677512,127.9011607,沖縄県国頭郡本部町山里1174-3-2,0980-47-6383
,星のテラスもとぶ山里,149306,,,26.66723429,127.9011458,沖縄県国頭郡本部町山里1172-1,0980-47-7777
,ＩＳＡＮＡ瀬底別邸　＾,195688,,,26.6445459,127.8639714,沖縄県国頭郡本部町瀬底91,090-1077-7799
,コンフォート・ヴィラ,182466,,,26.6774673,127.889142,沖縄県国頭郡本部町浦崎279-1,098-989-3880
,ＭＫ４８６　ちゅらパレス　Ｂ棟　＾,195634,,,26.6778613,127.8883689,沖縄県国頭郡本部町字浦崎282-4,080-3592-6689
,ＨＩＬＬ　ＴＯＰ　もとぶ,191592,,,26.6700732,127.9003728,沖縄県国頭郡本部町字野原480-1,098-963-7007
,Ｖｉｌｌａ　Ｃｌｏｗｎｆｉｓｈ　Ｒｅｅｆ,196607,,,26.677809,127.8888443,沖縄県国頭郡本部町字浦崎285-9,070-9088-3415
,Ｖａｃａｔｉｏｎ　Ｒｅｎｔａｌ　Ｍｏｔｏｂｕ　Ｇｒａｎｄｅ　＾,194071,,,26.6777748,127.8890238,沖縄県国頭郡本部町浦崎286-1　Ｖａｃａｔｉｏｎ　Ｒｅｎｔａｌ　Ｍｏｔｏｂｕ　Ｇｒａｎｄｅ,090-4987-6669
,ＺＡ１３１　ちゅらパレス　Ｃ棟　＾,195164,,,26.6780601,127.8883749,沖縄県国頭郡本部町浦崎282-2　ちゅらパレス,080-4086-2001
,ゲストハウス　はたご２４,193149,,,26.677869,127.8894572,沖縄県国頭郡本部町字浦崎291,070-6580-1922
,アイランドヒルズ瀬底,167819,,,26.64344698,127.8631645,沖縄県国頭郡本部町瀬底4809,0980-43-9308
,ＨＵＭＭＯＣＫＳ,198030,,,26.6414374,127.8651268,沖縄県国頭郡本部町瀬底3480-1,0980-43-1991
,今注目の車で行ける離島「瀬底島」にある　かわいいログハウス！ちむｌａｎｉです！　＾,171311,,,26.6428031,127.8632646,沖縄県国頭郡本部町瀬底4621-1　瀬底ログキャビン【ちむｌａｎｉ】,050-8881-6552
,シーク,187295,,,26.6411692,127.8648753,沖縄県国頭郡本部町字瀬底3488,098-989-7617
,ＲＥＲＥＳＯ沖縄　美ら海（旧カノープス本部）,173010,,,26.67921224,127.8883025,沖縄県国頭郡本部町豊原328-8,8061268256
,ホテル　美らビーチ,181680,,,26.6355585,127.8842118,沖縄県国頭郡本部町字崎本部4246-1,980430123
,ＳＡＲＡＨ　ＲＥＳＯＲＴ　ＶＩＬＬＡ　海,188409,,,26.646803,127.8591895,沖縄県国頭郡本部町瀬底3164-3,050-3700-7558
,Ｆｉｎｅ　Ｖｉｅｗ　ＳＥＳＯＫＯ,191593,,,26.646803,127.8591895,沖縄県国頭郡本部町字瀬底2858-1,098-963-7007
,Ｌｉｂｅｒｔｅ　ｓｅｓｏｋｏ　ｖｉｌｌａ,197091,,,26.646803,127.8591895,沖縄県国頭郡本部町瀬底498-2,090-5289-4908
,風の音,198837,,,26.646803,127.8591895,沖縄県国頭郡本部町瀬底3216-1,050-3529-5528
,Ｖｉｌｌａ　Ｓｐｅｃｉａｌｅ（ヴィラ　スペチアーレ）,184173,,,26.67928608,127.8885455,沖縄県国頭郡本部町豊原328-7,0980-48-2777
,本部コテージｎｏｂａｒｕ,151323,,,26.6717946,127.901269,沖縄県国頭郡本部町字野原73,8034096636
,ＭＡＮＴＡ　ｈｏｕｓｅ　ＩＩ,178433,,,26.6764336,127.8960714,沖縄県国頭郡本部町浦崎1290-1,080-2780-3786
,ＬＥＣＥＢ　ＳＥＳＯＫＯ　ＶＩＬＬＡ　ヒルズ,168497,,,26.64030617,127.8644179,沖縄県国頭郡本部町瀬底4747,0980-43-0343
,本部グリーンパークホテル,18761,,,26.67682406,127.8955605,沖縄県国頭郡本部町古島404,0980-48-3211
,ｐｏｏｌ　ｖｉｌｌａ　Ｓａｎｒｒｉｏｔｔ　Ｏｋｉｎａｗａ　Ｍｏｔｏｂｕ,192114,,,26.68015853,127.8876848,沖縄県国頭郡本部町山川赤原9-3,098-043-6214
,島宿くくる,158641,,,26.64123174,127.8629004,沖縄県国頭郡本部町瀬底4551-1　2F,5035779960
,プライベートヴィラ　グシクムイ　ｂｙ　コルディオプレミアム,163117,,,26.67219658,127.9017179,沖縄県国頭郡本部町山里1417-6,098-970-8520
,Ｐｒｉｖａｔｅ　Ｖａｃａｔｉｏｎ　Ｖｉｌｌａ　Ｋｏｈｏｌａ,164713,,,26.64472087,127.8587562,沖縄県国頭郡本部町瀬底4904,050-1721-8798
,オーシャンフロントＹＡＭＡＫＡＷＡ,153554,,,26.6816317,127.8844178,沖縄県国頭郡字本部町谷茶437－9－102,0980-43-0876
,アダンリゾート　Ｓｋｙ　Ｖｉｌｌａ　Ｔｏｙｏｈａｒａ,176822,,,26.68105423,127.8881598,沖縄県国頭郡本部町豊原254,0980-43-0073
,ＬＥ　ＣＡＮＡ　ＭＯＴＯＢＵ　ルカナ　モトブ,172114,,,26.67339753,127.9016768,沖縄県国頭郡本部町山里1426-30,0980-47-2002
,ＡＤＡＮ　ＲＥＳＯＲＴ　Ｓｋｙ　Ｖｉｌｌａ　Ｌｕｘｕｒｙ　Ｓｕｉｔｅ,183500,,,26.681227,127.8882597,沖縄県国頭郡本部町豊原254-2,0980-43-0073
,Ｓｋｙ　Ｖｉｌｌａ　Ｔｏｙｏｈａｒａ　＾,173959,,,26.68123,127.8882756,沖縄県国頭郡本部町豊原254,090-5827-6584
,アルファテラスモトブヒルズ,134905,,,26.65263788,127.9077126,沖縄県国頭郡本部町伊野波150-25,098-963-7007
,コンドミニアムＯｃｅａｎ本部,183285,,,26.6525023,127.9081652,沖縄県国頭郡本部町字伊野波150-91,9086680415
,イエロモトブ,191933,,,26.6525023,127.9081652,沖縄県国頭郡本部町伊野波150-90,098-989-7617
,Ｓｔａｒｄｕｓｔ　Ｍｏｔｏｂｕ　＾,171772,,,26.6535503,127.9084338,沖縄県国頭郡本部町伊野波150-15　Ｓｔａｒｄｕｓｔ　Ｍｏｔｏｂｕ,080-3983-8540
,コテージ花,183406,,,26.65268449,127.9083369,沖縄県国頭郡本部町字伊野波150-86,0980-43-5229
,ＮＡＤＩＴ,198550,,,26.6819317,127.8879808,沖縄県国頭郡本部町豊原247,070-3793-3007
,クリスタルリゾートＭｏｔｏｂｕ,184511,,,26.6529242,127.9086158,沖縄県国頭郡本部町伊野波150-85,098-963-7007
,美らや‐八重岳別邸‐,173185,,,26.65023898,127.9083919,沖縄県国頭郡本部町大嘉陽460,090-8243-7236
,ザエテルインディゴ本部／民泊,169360,,,26.6832914,127.8831884,沖縄県国頭郡本部町字山川870-1　ザエテルインディゴ本部,050-5369-8688
,ｃｏｎｄｏｍｉｎｉｕｍ　星の宿　楽家,160890,,,26.63369304,127.8907625,沖縄県国頭郡本部町崎本部356-4,0980-48-3365
,貸別荘ＢＡＮＫＳＨＩ－ＳＡ－　＾,195684,,,26.68364,127.881526,沖縄県国頭郡本部町字山川503-3　BANKSHI-SA-,080-6487-8943
,サンセットリゾート　カンプー,176600,,,26.68425821,127.8801184,沖縄県国頭郡本部町山川1011,050-3815-4783
,ペンションハイビスカス,192989,,,26.6377127,127.8614907,沖縄県国頭郡本部町瀬底4408-3,090-6184-2746
,プライベートプールヴィラもとぶ,183834,,,26.68433829,127.8842616,沖縄県国頭郡本部町山川473-3,098-989-3880
,ペンション弁慶ハウス,182702,,,26.68447305,127.8795117,沖縄県国頭郡本部町山川1015,098-851-8428
,Ｐｒｉｖａｔｅ　Ｈｏｕｓｅ　ｒｅ－ｃｏｒａ,198302,,,26.6313135,127.8887323,沖縄県国頭郡本部町字崎本部333,098-040-9024
,古民家の宿　陽瑠寝ｈｉｒｕｎｅ,178748,,,26.68317785,127.8957209,沖縄県国頭郡本部町謝花121,090-7097-2437
,むりぶしの宿,145053,,,26.68801322,127.9022186,沖縄県国頭郡本部町北里1017番地　グランピングは北里118番地,080-6495-9316
,ＣＡＳＡＢＬＡＮＣＡ　ＶＡＣＡＴＩＯＮ　ＨＯＵＳＥ（カサブランカ　バケーション　ハウス）,193439,,,26.68642375,127.9110496,未選択国頭郡本部町嘉津宇67-4,090-6237-3104
,美ら海ビレッジ　もとぶ富士カルスト,164484,,,26.67620605,127.9117374,沖縄県国頭郡本部町山里987,0980-48-3999
,ホルトノキ　ホテル＆トロピカルガーデン,180390,,,26.69377659,127.89525,沖縄県国頭郡本部町北里501-2,0980-43-7171
,もとぶいこいの宿やまちゃん,153355,,,26.6882531,127.890645,沖縄県国頭郡本部町豊原502-1,0980-48-4380
,ソレイユモトブヴィラリゾート,178280,,,26.6874039,127.8903577,沖縄県国頭郡本部町豊原623-1,080-2780-3786
,コンドミニアム　ありまばるビーチリゾート,145462,,,26.69844874,127.9048929,沖縄県国頭郡本部町字具志堅2988-3,0980-48-3365
,ＭＯＯＮ　ＲＯＣＫ　ＢＥＡＣＨ　ＨＯＵＳＥ　ＭＯＴＯＢＵ,197938,,,26.6987599,127.9026038,沖縄県国頭郡本部町具志堅2999-2,098-963-7007
,民宿　月の桃,198875,,,26.6969886,127.9127725,沖縄県国頭郡本部町具志堅85,090-1360-7821
,ｈａｍａｃａ１１７,182879,,,26.6905927,127.8898115,沖縄県国頭郡本部町豊原117,050-3154-0224
,沖縄フリーダム,172037,,,26.68752392,127.9199631,沖縄県国頭郡今帰仁村今泊1724-1,0980-56-3766
,ペンション渚,165743,,,26.6991858,127.9003689,沖縄県国頭郡本部町新里51,090-9577-9761
,美ら海ビレッジ　プール＆テラス,183222,,,26.6898714,127.8893158,沖縄県国頭郡本部町豊原154-3,0980-48-3999
,古民家宿　うんてぃん屋,160984,,,26.69820624,127.9124746,沖縄県国頭郡本部町具志堅145,090-2512-2740
,ＭＡＮＴＡ　ｈｏｕｓｅ,178279,,,26.6883038,127.8882398,沖縄県国頭郡本部町豊原188-3,080-2780-3786
,宿光明屋,153393,,,26.6981144,127.9133452,沖縄県国頭郡本部町具志堅119,090-4567-0645
,サンセットリゾート　かぬたん,135486,,,26.69981628,127.9094894,沖縄県国頭郡本部町具志堅632-1,0980-43-0550
,ぬちぐすいハウス（ＮＵＣＨＩＧＵＳＵＩ-ＨＯＵＳＥ）,172019,,,26.6995717,127.8977247,沖縄県国頭郡本部町新里197-3,080-3988-7551
,Ｍａ－Ｂｌｕｅ　Ｇａｒｄｅｎ　Ｈｏｕｓｅ（マーブルーガーデンハウス）,147990,,,26.70067417,127.9008053,沖縄県国頭郡本部町新里247-1,0980-48-2222
,アーユルウェルネスリゾート　Ｏｋｉｎａｗａ,188790,,,26.6999694,127.8980291,沖縄県国頭郡本部町新里170-5,098-989-7617
,ＥＲＵＭＡＹＡ　Ｒｅｓｏｒｔ,197153,,,26.69499949,127.9181845,沖縄県国頭郡本部町字具志堅1717-1,0980-43-8585
,アーバンヴィラリゾート　ＹＡＥ,183164,,,26.6974473,127.9161759,沖縄県国頭郡本部町字具志堅681-3,050-1722-9161
,Ｎａｔｕｒａ　ＦＵＫＵＧＩ,184147,,,26.69774702,127.9160403,沖縄県国頭郡本部町字具志堅681番地3,098-943-8588
,美ら海ビレッジ,141237,,,26.68725143,127.8861353,沖縄県国頭郡本部町豊原241-1 美ら海ビレッジ２号店,0980-48-3999
,Ｔｈｅ　Ｐｏｏｌ　＆　Ｓａｕｎａ　Ｖｉｌｌａ　ＭＯＴＯＢＵ,180254,,,26.70124757,127.8985198,沖縄県国頭郡本部町新里115番地1,0980-43-1038
,ＳＨＩＮＭＩＮＫＡ　Ｖｉｌｌａ　ＧＵＳＨＩＫＥＮ（本部町）　＾,169005,,,26.700072,127.913787,沖縄県国頭郡本部町字具志堅206,050-3196-6105
,福木館,181221,,,26.7000814,127.8939035,沖縄県国頭郡本部町新里656,090-8885-0035
,ｓｅａｇｕｌｌ　ｏａｓｉｓ　＾,190358,,,26.70153789,127.9135593,沖縄県国頭郡本部町具志堅1010　ｓｅａｇｕｌｌ　ｏａｓｉｓ,080-1421-8700
,ラ・フォーレＭｏｔｏｂｕ,180355,,,26.6921938,127.8844272,沖縄県国頭郡本部町石川358　1F,090-6867-8230
,メゾンＬ本部２階,181237,,,26.6921938,127.8844272,沖縄県国頭郡本部町石川358,090-6867-8230
,古民家コテージ　やんばるの家,191943,,,26.6918915,127.8839507,沖縄県国頭郡本部町字石川308番地,090-4989-3719
,ルナ．テラッセＢ＆Ｂレストラン,189243,,,26.6991554,127.8874865,沖縄県国頭郡本部町備瀬2039-1,0980-43-8030
,ＯＫＩＮＡＷＡ　ＭＯＴＯＢＵ　ゲストハウス,72099,,,26.68645341,127.8816143,沖縄県国頭郡本部町山川571,090-9074-0328
,ゲストハウス　いーさー,151053,,,26.7001712,127.8878536,沖縄県国頭郡本部町備瀬2045-1,0980-43-6760
,ＥＭＥＲＡＬＤ－ＩＮＮ,162702,,,26.6916389,127.8820401,沖縄県国頭郡本部町石川751-13,9050828488
,Ｓｕｚｕｒａｎ　Ｈｏｕｓｅ　＾,174589,,,26.6918897,127.8821247,沖縄県国頭郡本部町石川762,080-9852-8558
,すずらんの家,181472,,,26.6918897,127.8821247,沖縄県国頭郡本部町石川762,098-963-7007
,ＴＨＥＡＴＥＲ　ＲＥＳＯＲＴ,164766,,,26.69175165,127.8818395,沖縄県国頭郡本部町石川752-5,090-5082-8488
,パークサイドモリ　＾,186140,,,26.6921227,127.8818982,沖縄県国頭郡本部町石川760-2　Ｐａｒｋ　Ｓｉｄｅ　Ｍｏｒｉ,090-4470-1929
,民宿　涼風（しらかじ）,160653,,,26.6853758,127.8805486,沖縄県国頭郡本部町山川994,090-9786-2961
,ウッドペッカー今帰仁,146921,,,26.7014256,127.9204804,沖縄県国頭郡今帰仁村今泊681 ,0980-56-1010
,Ｉｎｄｉｇｏ８０５／民泊,175927,,,26.6853031,127.8804081,沖縄県国頭郡本部町字山川870－1　ザエテルインディゴ本部805,080-9852-8558
,Ｍｏｎ　Ｒｅｆｕｇｅ　Ｐｒｉｖｅ　（私の隠れ家）,187316,,,26.6853031,127.8804081,沖縄県国頭郡本部町山川1054,0980-43-0876
,北からゆいまーる　ｉｎ　本部　＾,185400,,,26.6926666,127.8814124,沖縄県国頭郡本部町石川801-4,090-6859-6463
,ＯＫＩＮＡＷＡ　ＩＭＰＥＲＩＡＬ　ＲＥＳＯＲＴ　〜沖縄美ら海〜,179389,,,26.6871562,127.8800237,沖縄県国頭郡本部町山川931,03-4405-2361
,コテージ當山邸,109396,,,26.68501743,127.8798006,沖縄県国頭郡本部町山川1016,090-1942-0945
,ＭＡＧＡＣＨＡＢＡＲＵ　ＯＫＩＮＡＷＡ　マガチャバル　オキナワ,149413,,,26.67835905,127.9278607,沖縄県国頭郡今帰仁村字今泊2498,0980-56-1301
,Ｓｅｃｒｅｔ　Ｖｉｌｌａｓ　ｂｙ　Ｒｅｌａｐｏｏｌ,179046,,,26.68575542,127.8788481,沖縄県国頭郡本部町山川1025-1,050-1722-9161
,ザ・ヴィラス待遠屋,167031,,,26.69535979,127.8809776,沖縄県国頭郡本部町石川894-1,090-3797-9856
,Ｏｎ　Ｔｈｅ　Ｂｅａｃｈ　Ｔｅｒｒａｃｅ,196742,,,26.7022427,127.9226378,沖縄県国頭郡今帰仁村今泊612-2　2階,098-963-7007
,ローズテラス備瀬,164613,,,26.7026515,127.8860009,沖縄県国頭郡本部町備瀬2171-1,0980-43-1876
,美ら海の宿　コーラルキャビン,167981,,,26.68756348,127.877855,沖縄県国頭郡本部町山川907-5,0980-48-3805
,Ｊａｃｕｚｚｉ　Ｔｅｒｒａｃｅ　Ｏｋｉｎａｗａ　ＩＭＳ（ジャグジー　テラス　オキナワ　アイエムエス）,176910,,,26.70231246,127.8852025,沖縄県国頭郡本部町字備瀬1777,0980-51-7501
,ＲＯＣＯＮＩＡ　ＴＥＲＲＡＣＥ（ロコニアテラス）,179460,,,26.6872615,127.8774063,沖縄県国頭郡本部町山川965番地2階,080-8567-7337
,オーシャンビューテラスＢＩＳＥ,165203,,,26.69952905,127.8809292,沖縄県国頭郡本部町備瀬212-1(2F),098-923-0415
,備瀬ハウス,166103,,,26.70098448,127.8820369,沖縄県国頭郡本部町備瀬298-1,090-6861-8834
,沖縄の古民家　ミーヤー＜今帰仁村＞,163038,,,26.70194673,127.9261638,沖縄県国頭郡今帰仁村今泊116,0980-56-2362
,アダンリゾート　和〜Ｎａｇｏｍｉ〜,198749,,,26.7003539,127.8811789,沖縄県国頭郡本部町備瀬352-1,0980-43-0073
,アダンリゾート　縁〜Ｅｎ〜,181733,,,26.7008983,127.8815993,沖縄県国頭郡本部町備瀬303,0980-43-0073
,アダンリゾート太陽〜Ｔｉｄａ〜,167791,,,26.70105596,127.8814876,沖縄県国頭郡本部町備瀬342,0980-43-0073
,アダンリゾート　灯〜Ｌａｍｐ〜,182096,,,26.7009023,127.8810981,沖縄県国頭郡本部町備瀬346,0980-43-0073
,陽月－Ｈｉｚｕｋｉ－,197300,,,26.7016637,127.9273701,沖縄県国頭郡今帰仁村今泊139,070-9183-6072
,Ｂｉｓｅ　ＳＭＣ　Ｖｉｌｌａｇｅ,188370,,,26.7024435,127.8818252,沖縄県国頭郡本部町字備瀬317,070-9174-5785
,ペンション　サンセットビーチ,84930,,,26.70367166,127.9262185,沖縄県国頭郡今帰仁村今泊37,0980-56-5534
,森とホタルの一軒家『新富』／民泊,175126,,,26.7009182,127.8797836,沖縄県国頭郡本部町字備瀬222-3,050-5444-6620
,アカバナーイン,166370,,,26.70371979,127.9266067,沖縄県国頭郡今帰仁村今泊33,0980-43-5830
,‐ｍｕｓｅｅ　ｖｉｌｌａ‐,180581,,,26.69209785,127.9336034,沖縄県国頭郡今帰仁村兼次538-40,050-1721-4419
,アダンリゾート　風〜Ｆｕ〜,167902,,,26.70148961,127.8800513,沖縄県国頭郡本部町備瀬414,0980-43-0073
,ｎｕｎｅｎ　（ぬ〜ね〜ん）　＾,176196,,,26.7018703,127.9284658,沖縄県今帰仁村今泊3194　ｎｕｎｅｎ　（ぬ～ね～ん）,090-9659-5392
,まんなや〜,166121,,,26.70246914,127.8807762,沖縄県国頭郡本部町備瀬450,098-989-7617
,沖縄の古民家体験の宿　ぷからーさ,176834,,,26.70290826,127.9276457,沖縄県国頭郡今帰仁村字今泊74-1,090-3205-6108
,ＢＩＳＥ　ＰＲＩＶＡＴＥ　ＶＩＬＬＡ　ＰｉＰｉ,191958,,,26.70383395,127.8819898,沖縄県国頭郡本部町字備瀬516,080-9853-5275
,ぬちゆい〜命結〜,193559,,,26.7038587,127.9272848,沖縄県国頭郡今帰仁村今泊20-1,090-3239-6753
,おじぃの家,180606,,,26.70202649,127.8798306,沖縄県国頭郡本部町備瀬429,050-5369-8688
,ふくぎリビング,196395,,,26.7045541,127.8818468,沖縄県国頭郡本部町字備瀬535,0980-51-0322
,ＴＨＥ　ＧＡＲＤＥＮ　Ｂｉｓｅ,197791,,,26.70503209,127.8821718,沖縄県国頭郡本部町備瀬551,070-5816-7778
,Ｂｉｒｔｈ　ｔｈｅ　ｓｕｉｔｅ,139912,,,26.70352674,127.8805105,沖縄県国頭郡本部町備瀬484,0980-48-2595
,Ｂ＆Ｂ　Ｐａｓｔｏｒａｌ,189080,,,26.70489051,127.8818467,沖縄県国頭郡本部町字備瀬548,080-5379-1978
,ちむぐくるの宿ＨＡＮＡＵＴＡ,191680,,,26.7029461,127.9290885,沖縄県国頭郡今帰仁村字今泊3098,079-263-7511
,たびの邸宅　沖縄備瀬　ＨＯＭＡＮＮ　ＣＯＮＣＥＰＴ,163179,,,26.7054041,127.8815427,沖縄県国頭郡本部町備瀬558,050-1808-3727
,古民家宿　三島やー,151181,,,26.66530073,127.92673,沖縄県国頭郡本部町伊野波1368,080-8559-5654
,白浜の宿　汐風,168355,,,26.70393759,127.9289584,沖縄県国頭郡今帰仁村今泊3003,050-6872-6472
,ＳＡＵＮＡ　ＨＯＵＳＥ　ＮＡＫＩＪＩＮ,191725,,,26.7038923,127.9292541,沖縄県国頭郡今帰仁村今泊3008,0792-63-7511
,美ら海の宿　はんじゃーやー,196233,,,26.7050488,127.8806226,沖縄県国頭郡本部町字備瀬540,090-6863-9451
,ＣＡＳＡ　ＤＵＭＡＩ　ＯｃｅａｎＶｉｌｌａ　ＮＡＫＩＪＩＮ,184862,,,26.7038404,127.9293887,沖縄県国頭郡今帰仁村今泊3009,0980-43-0710
,沖縄古民家宿屋　銀まる,165606,,,26.70268818,127.930584,沖縄県国頭郡今帰仁村今泊3041,090-7587-4731
,ＡＤＡＮ　Ｒｅｓｏｒｔ　－空－,193507,,,26.7062668,127.8816499,沖縄県国頭郡本部町備瀬586,0980-43-0073
,Ｆｕｋｕｇｉ　Ｉｎｎ,183718,,,26.7029657,127.9306751,沖縄県国頭郡今帰仁村今泊3042,0980-43-0876
,古民家　かねや,147430,,,26.7062513,127.8811316,沖縄県国頭郡本部町備瀬584,080-6494-8867
,魔神のつぼ,181812,,,26.701609,127.932458,沖縄県国頭郡今帰仁村今泊3565-1,0980-56-3098
,アダンリゾート燈〜ＬＡＮＴＥＲＮ〜,182711,,,26.7072755,127.8808767,沖縄県国頭郡本部町備瀬615,0980-43-0073
,プールヴィラ　今泊　ｂｙ　コルディオプレミアム,162770,,,26.7022204,127.9332878,沖縄県国頭郡今帰仁村今泊3551,098-970-8519
,古民家の宿　しらぱま,136949,,,26.70775949,127.8804696,沖縄県国頭郡本部町備瀬624,090-6862-4712
,Ｓｅｃｒｅｔ　Ｐｏｏｌ　Ｖｉｌｌａ　ＳＥＪＩ　Ｏｋｉｎａｗａ,179202,,,26.70781574,127.8801791,沖縄県国頭郡本部町備瀬628,098-923-2915
,シュノーケルの宿　ファミリーイン備瀬崎竜宮前,196028,,,26.7088257,127.8802489,沖縄県国頭郡本部町備瀬639-21,080-5334-6842
,備瀬の宿　結　Ｌａｇｏｏｎ＆Ｃｏｒａｌ,184432,,,26.7090598,127.8802886,沖縄県国頭郡本部町字備瀬639-26,090-7983-8165
,ゲストハウス　備瀬の海,76830,,,26.70942597,127.8800224,沖縄県国頭郡本部町備瀬639-16,090-5289-5998
,宮古第一ホテル　＜宮古島＞,13529,,,24.80656849,125.2812201,沖縄県宮古島市平良西里191,0980-73-5522
,シティライフ宮古ラブニール／民泊,174467,,,24.8058973,125.280119,沖縄県宮古島市平良西里176-2,0120-385-514
,ホテル八城＜宮古島＞,149272,,,24.8065704,125.2802876,沖縄県宮古島市平良西里1-16,0980-72-1950
,ヴィラアパラギ宮古島＜宮古島＞,184330,,,24.80698915,125.281628,沖縄県宮古島市平良東仲宗根76-1,070-2668-2664
,ホテルニュー丸勝　＜宮古島＞,14556,,,24.80436118,125.2812143,沖縄県宮古島市平良西里303-3,0980-72-9936
,ＯＮＥ　ｍｉｙａｋｏｊｉｍａ＜宮古島＞,187595,,,24.8046036,125.2821566,沖縄県宮古島市平良西里329　エビスビル3階,0980-79-9233
,ＭＡＨＨＯ　ＴＥＲＲＡＣＥ＜宮古島＞,191510,,,24.8062986,125.2798422,沖縄県宮古島市平良西里182-3,0980-79-8065
,アールエフ市場通り＜宮古島＞,191937,,,24.8050374,125.2794677,沖縄県宮古島市平良字西里144,090-1873-0036
,ホテル　アイランドコーラル　＜宮古島＞,16421,,,24.8054298,125.2792396,沖縄県宮古島市平良字西里154番地,0980-73-2345
,Ｈａｌｅ　Ｈｏｔｅｌ　Ｍｉｙａｋｏｊｉｍａ＜宮古島＞,198813,,,24.806329,125.2792975,沖縄県宮古島市平良字西里27,0980-79-6644
,ホテルカバナ宮古島＜宮古島＞,191751,,,24.8067836,125.2795184,沖縄県宮古島市平良西里11,0980-79-6515
,ほりの宿＜宮古島＞,173007,,,24.80498077,125.279304,沖縄県宮古島市平良字西里142,0980-74-1132
,宮古島令和ホテル＜宮古島＞,177970,,,24.80620334,125.2791354,沖縄県宮古島市平良西里37-2,0980-79-5550
,ながちび＜宮古島＞,183912,,,24.8074663,125.282516,沖縄県宮古島市平良字東仲宗根269-3,050-8886-7847
,ボディバランスハウス＜宮古島＞,168637,,,24.80754519,125.2801499,沖縄県宮古島市平良西里5-5,0980-79-8512
,観光ホテル　セイルイン宮古島　＜宮古島＞,15251,,,24.80438156,125.2791085,沖縄県宮古島市平良下里3,09807-4-3854
,ホテルアートアベニュー＜宮古島＞,187406,,,24.80779636,125.279789,沖縄県宮古島市平良西里7,0980-73-4146
,ラ・ルーチェ東仲宗根／民泊,170807,,,24.8053066,125.284205,沖縄県宮古島市平良東仲宗根112　ラ・ルーチェ東仲宗根,0561-76-6817
,ホテル　オアシティ共和　＜宮古島＞,84805,,,24.80340293,125.2797561,沖縄県宮古島市平良下里571-11,0980-79-0555
,ホテルピースアイランド宮古島　＜宮古島＞,106042,,,24.80314743,125.2827503,沖縄県宮古島市平良西里310,0980-74-1717
,ぬかぬか　＜宮古島＞,143313,,,24.80857,125.282005,沖縄県宮古島市平良西仲宗根52-2,050-8886-7847
,宮古クリスタルホテル＜宮古島＞,182052,,,24.80541316,125.278053,沖縄県宮古島市平良西里126,0980-79-8800
,ピースリーイン宮古島　＜宮古島＞,147528,,,24.8030807,125.2828851,沖縄県宮古島市平良西里311,080-9240-5723
,ＣＯＺＹ　ＳＴＡＹ　ＧＲＯＵＰ　Ｙ’ＲＩＳＥ　ＴＯ　ＨＯＴＥＬ　宮古島＜宮古島＞,172020,,,24.80577713,125.2780017,沖縄県宮古島市平良西里83,0980-75-6147
,パナリ　＾,199849,,,24.8038535,125.284044,沖縄県宮古島市平良字西里395-2F Ｐａｎａｒｉ,080-9853-9328
,よんなよんな　＜宮古島＞,139430,,,24.80894126,125.2810615,沖縄県宮古島市平良西仲宗根28-2,050-8886-7847
,こもれび＜宮古島＞,173047,,,24.8067183,125.2776845,沖縄県宮古島市平良西里57-5,0980-79-9797
,ゲストハウス綾道　＜宮古島＞,128607,,,24.80373898,125.2781424,沖縄県宮古島市平良下里87,080-5659-4189
,ゆくいる　＾,174320,,,24.8090646,125.282579,沖縄県宮古島市平良東仲宗根287-1,090-9782-7223
,1日１組限定の宿　　ゆくいる　＜宮古島＞,147761,,,24.80907334,125.2825833,沖縄県宮古島市平良東仲宗根287番地1,090-9782-7223
,Ｈｏｔｅｌ　３８５＜宮古島＞,167488,,,24.80255152,125.2833388,沖縄県宮古島市平良西里561,0980-79-0998
,さっふぃ（Ｓａｆｆｉ）＜宮古島＞,165621,,,24.8094284,125.2806097,沖縄県宮古島市平良西仲宗根3-17,050-8886-7847
,Ｍｒ．ＫＩＮＪＯ　ＭＩＹＡＫＯ　ＩＳＬＡＮＤ＜宮古島＞,172247,,,24.80284743,125.2785408,沖縄県宮古島市平良下里535-6,0980-79-0871
,フェーヌカジ　＾,170766,,,24.8036651,125.2775296,沖縄県宮古島市平良下里133　フェーヌカジ,070-5409-9607
,Ｍｒ．ＫＩＮＪＯ　ｉｎｎ　ＭＩＹＡＫＯＪＩＭＡ＜宮古島＞,182696,,,24.8018396,125.2796793,沖縄県宮古島市平良字下里618-3,0980-79-7085
,ゲストハウスほんまや＜宮古島＞,167301,,,24.8016849,125.2831179,沖縄県宮古島市平良西里573-6,0980-79-5089
,ホテル・デ・ラクア宮古島　＜宮古島＞,136030,,,24.80234468,125.278048,沖縄県宮古島市平良下里523-4,0980-73-1155
,宮古島ゲストハウス風家（ふうや）＜宮古島＞,129493,,,24.80451944,125.2764592,沖縄県宮古島市平良下里109-7,0980-75-4343
,ＨＡＰＰＹ　ＩＳＬＡＮＤ　宮古／民泊,189625,,,24.8052973,125.2865083,沖縄県宮古島市平良東仲宗根448-2　ＨＡＰＰＹ　ＩＳＬＡＮＤ　ＭＩＹＡＫＯ,090-8882-8873
,かりゆしコンドミニアムリゾート宮古島　ふくぎステイズ＜宮古島＞,172935,,,24.80262021,125.2853402,沖縄県宮古島市平良西里377-1,098-967-7112
,ひららの湯　たびのホテルｌｉｔ宮古島＜宮古島＞,182136,,,24.80128595,125.283845,沖縄県宮古島市平良西里596,0980-75-3100
,ホテルアンダーグラウンド宮古島＜宮古島＞,196025,,,24.8007145,125.282044,沖縄県宮古島市平良下里785,0980-79-8655
,ペンション白川苑　＜宮古島＞,158299,,,24.8094953,125.2867064,沖縄県宮古島市平良西仲宗根460-1,080-1715-0836
,ＳＥＮＴ　ＲＥＳＯＲＴ　ＶＩＬＬＡ＜宮古島＞,181135,,,24.8041485,125.2745197,沖縄県宮古島市平良字下里203-2　セントリゾートヴィラ,050-5794-0615
,民宿　石水亭　＜宮古島＞,147502,,,24.8106423,125.2857592,沖縄県宮古島市平良西仲宗根388-3,0980-73-4120
,ホテル　ローカス　＜宮古島＞,164915,,,24.8048593,125.2739854,沖縄県宮古島市平良字下里338-40,0980-79-0240
,ｋｕｕｋａｎ　ｈｏｕｓｅ＜宮古島＞,192031,,,24.7993238,125.2785961,沖縄県宮古島市平良下里486,080-4436-2511
,ｚａｙａ　｜　ヒララ、もてなしの宿／民泊,186240,,,24.7989818,125.2840118,沖縄県宮古島市平良下里825-2　ｚａｙａ,050-5444-6620
,Ｍ－Ｖｉｌｌａｇｇｉｏ＜宮古島＞,179780,,,24.79845468,125.2833802,沖縄県宮古島市平良下里855-4,098-894-3597
,うみやど・ごはん　ポークランチョンミート　＜宮古島＞,147854,,,24.80416895,125.27304,沖縄県宮古島市平良下里338-50,090-7945-0844
,オレンジＢＯＸ　ＡＮＮＥＸ　＜宮古島＞,147954,,,24.8136196,125.2823233,沖縄県宮古島市平良荷川取130,0980-73-7373
,民宿　すかい　＜宮古島＞,41994,,,24.80390854,125.2899414,沖縄県宮古島市平良東仲宗根824,0980-73-0011
,宮古島ペンションオレンジＢＯＸ　＜宮古島＞,32174,,,24.81394908,125.2812892,沖縄県宮古島市平良荷川取103,0980-73-7373
,ｙｏｍｏ｜ヒララ、おばあの宿／民泊,186045,,,24.8026432,125.2901777,沖縄県宮古島市平良東仲宗根817-3　ｙｏｍｏ,090-8249-6581
,ホヌ・エルアエコル＜宮古島＞,197131,,,24.8151925,125.2824563,沖縄県宮古島市平良荷川取220-5,03-6272-9328
,ホテルサザンコースト　宮古島　＜宮古島＞,67820,,,24.80173077,125.2708764,沖縄県宮古島市平良下里335-1,0980-75-3335
,ゲストハウスシータートル／民泊,174880,,,24.7966121,125.2756826,沖縄県宮古島市平良久貝881-9,090-9478-9854
,宮古島Ｇｕｅｓｔ　Ｈｏｕｓｅ　ＰＡＲＫ　ＳＩＤＥ　＜宮古島＞,75282,,,24.79600643,125.2764121,沖縄県宮古島市平良久貝893-2,090-8537-6994
,ウィークリー・マンスリーＳＯＲＡ＜宮古島＞,176893,,,24.80028266,125.2916124,沖縄県宮古島市平良西里809-6　2F,070-4078-9957
,Ｍｒ．ＫＩＮＪＯ　宮古島　パイナガマリゾート＜宮古島＞,178951,,,24.80140145,125.2702245,沖縄県宮古島市平良下里356-77,0980-79-0523
,ＲｅＨａＱ宮古島バケーションレンタルハウス／民泊,190493,,,24.8101772,125.2924183,沖縄県宮古島市平良西仲宗根604-7,0120-283-818
,エスポワール与那覇ビル＜宮古島＞,196042,,,24.8029179,125.2931157,沖縄県宮古島市平良東仲宗根624-4,080-6487-6331
,ＨＯＴＥＬ　Ｒ９　Ｔｈｅ　Ｙａｒｄ　宮古島＜宮古島＞,182628,,,24.80421121,125.2935977,沖縄県宮古島市平良東仲宗根750-1,0980-79-7321
,ペンション　マルケン　＜宮古島＞,140968,,,24.81718315,125.2836686,沖縄県宮古島市平良荷川取332-2,0980-72-8081
,ウィークリー広公路　＜宮古島＞,106012,,,24.79948126,125.2926745,沖縄県宮古島市平良西里817-2,090-6859-5576
,ペンションマイギャル　＾,173278,,,24.79507487,125.2749807,沖縄県宮古島市平良字久貝904-5,090-7811-6005
,海人の宿　ペンション　タカラガイ　＜宮古島＞,134765,,,24.79806448,125.2707653,沖縄県宮古島市平良久貝670-4,0980-73-1331
,ニンギン空間＜宮古島＞,198918,,,24.7980685,125.2707026,沖縄県宮古島市平良久貝670-4,03-6705-5554
,ペンションＭＵ　＜宮古島＞,37400,,,24.7980454,125.2706651,沖縄県宮古島市平良字久貝670-1,0980-73-7511
,きくのこ３缶ヴィラ＆テラス＜宮古島＞,191969,,,24.79609037,125.2727641,沖縄県宮古島市平良久貝844-7,090-2335-3344
,オーシャンフロント＜宮古島＞,198700,,,24.8004402,125.2687719,沖縄県宮古島市平良字下里394-4,0980-73-6677
,パームスプリングス　宮古島リゾート＜宮古島＞,168635,,,24.79943227,125.2692359,沖縄県宮古島市平良久貝654-23,050-2018-7883
,ドミトリーｇｉｎｇｅｒ　＾,195112,,,24.80038,125.2686218,沖縄県宮古島市平良下里396-1,098-073-6677
,Ｄｅａｒ　Ｓｅａ　宮古島／民泊,186481,,,24.793003,125.2821798,沖縄県宮古島市平良下里1074-1　Ｓｈｉｎａｉ　Ｍａｎｓｉｏｎ　Ｓｈｉｍｏｚａｔｏ,080-1618-7959
,ホテルしおんの海＜宮古島＞,181882,,,24.81654306,125.2886326,沖縄県宮古島市平良字荷川取269-1,0980-79-7278
,ムニユイツ宮古島Ｓｐａ＆Ｐａｒｋ＜宮古島＞,198362,,,24.8003598,125.2685491,沖縄県宮古島市平良下里395-5 ウエストオーシャンⅡ 2F,06-6655-1173
,ａｔ６０％　＾,194616,,,24.81036259,125.2946091,沖縄県宮古島市平良字西仲宗根569-17　ａｔ60％,080-6542-5107
,Ｌハウス宮古島＜宮古島＞,181724,,,24.7945464,125.2740381,沖縄県宮古島市平良久貝851-48,090-6867-8230
,ゲストハウス　ぱいぬさと＜宮古島＞,80656,,,24.79314007,125.2773648,沖縄県宮古島市平良久貝1034-3 ,050-5874-8414
,ヴィラ　カプリ　宮古島＜宮古島＞,183223,,,24.79417998,125.2745051,沖縄県宮古島市平良久貝916番,050-2018-7883
,Ｔｈｅ　Ｎｏ．１０　Ｍｉｙａｋｏ　Ｐｏｏｌ　ｖｉｌｌａ　＾,190178,,,24.8102804,125.2948504,沖縄県宮古島市平良字西仲宗根569-18　Ｔｈｅ　Ｎｏ．10　Ｍｉｙａｋｏ　Ｐｏｏｌ　ｖｉｌｌａ,080-6542-5107
,メゾテラス宮古島＜宮古島＞,192842,,,24.8102804,125.2948504,沖縄県宮古島市平良西仲宗根569-16,050-5369-8688
,ザ・ファースト／民泊,199852,,,24.8102804,125.2948504,沖縄県宮古島市平良字西仲宗根569-19 Ｔｈｅ　Ｆｉｒｓｔ,080-9853-9328
,ヴィラ　マリブ　パームスプリングス宮古島リゾート＜宮古島＞,187334,,,24.79819463,125.2693806,沖縄県宮古島市平良字久貝654-67,050-2018-7883
,ＢＬＰ宮古島東仲宗根７０２／民泊,194090,,,24.804839,125.2961732,沖縄県宮古島市平良字東仲宗根702-8,050-5810-2161
,ｓａｋｕｍａ　ｔｅｒｒａｃｅ（サクマ　テラス）＜宮古島＞,183404,,,24.79189739,125.2806322,沖縄県宮古島市平良字下里1021-14,090-9783-5316
,サンズガーデン　イン　パイナハマ＜宮古島＞,166129,,,24.7981626,125.2684608,沖縄県宮古島市平良久貝703-1,0980-79-9757
,ＶＩＬＬＡ　ＣＯＺＹＳＴＡＹ　９２　宮古島＜宮古島＞,184479,,,24.79899529,125.267743,沖縄県宮古島市平良久貝649-1,0980-75-6147
,Ｈｏｔｅｌ　＆　Ｖｉｌｌａ　Ｓｅａｈｏｒｓｅ　ＭＩＹＡＫＯＪＩＭＡ＜宮古島＞,184478,,,24.79907301,125.2675757,沖縄県宮古島市平良字久貝649-8,0980-79-7793
,ホテルサザンスイート久貝＜宮古島＞,180148,,,24.7941905,125.2722182,沖縄県宮古島市平良久貝826-2,03-6272-9328
,Ｋｏｋｏ　Ｂｅａｃｈ　ゲストハウス　宮古島＜宮古島＞,180788,,,24.79667117,125.2692633,沖縄県宮古島市平良字久貝709番地14,0980-79-5422
,星のテラス　アルシオーネＩＩ　＜宮古島＞,160866,,,24.79530405,125.2705991,沖縄県宮古島市平良久貝721-13　2Ｆ,0980-73-4522
,ｄｏｒｍｉｔｏｒｙ　ａｌｌ　ｇｏｏｄ＜宮古島＞,129885,,,24.79146528,125.280759,沖縄県宮古島市平良下里1021-4,070-3274-5775
,ゲストハウスあかばな　＾,199851,,,24.7918892,125.2773895,沖縄県宮古島市平良字松原529-1 Ｇｕｅｓｔ　Ｈｏｕｓｅ　Ａｋａｂａｎａ,080-9853-9328
,アイコニー＜宮古島＞,189173,,,24.7952006,125.2705292,沖縄県宮古島市平良字久貝721-7　1Ｆ,080-6490-4196
,Ｍｒ．ＫＩＮＪＯ　ＬＩＮＫ　ｉｎ　Ｋｕｇａｉ宮古島＜宮古島＞,179104,,,24.79132326,125.2804164,沖縄県宮古島市平良久貝1058,0980-79-5685
,ホテル宮古島＜宮古島＞,168743,,,24.7988881,125.2672537,沖縄県宮古島市平良久貝649-7,0980-79-0155
,ｅｃｏｔ　久貝１＜宮古島＞,179150,,,24.7925917,125.2745099,沖縄県宮古島市平良久貝上原1017-19.20,050-2018-7883
,Ｍｒ．ＫＩＮＪＯ　Ｈａｐｐｉｎｅｓｓ　Ｒｅｓｏｒｔ　１＜宮古島＞,183284,,,24.79793597,125.2677763,沖縄県宮古島市平良字久貝626-1,0980-79-7361
,Ｍｒ．ＫＩＮＪＯ　Ｈａｐｐｉｎｅｓｓ　Ｒｅｓｏｒｔ　Ⅱ＜宮古島＞,182694,,,24.79799623,125.2676442,沖縄県宮古島市平良字久貝626-3,0980-79-5907
,宮古島一戸建て民泊　Ｏｔｏｍａｒｉ／民泊,171403,,,24.79175283,125.2763095,沖縄県宮古島市平良久貝1024-18　Ｏｔｏｍａｒｉ,080-4361-5677
,【８名まで同料金】Ｐｌａｇｅ　Ｇａｒｄｅｎ　Ｐｌａｃｅ　Ａ－１１１／民泊,171314,,,24.8046245,125.2974709,沖縄県宮古島市平良東仲宗根700-10-10　Ｐｌａｇｅ　Ｇａｒｄｅｎ　Ｐｌａｃｅ　Ａ-111,0561-76-6817
,Ｒｅｓｏｒｔ　Ｇａｒｄｅｎ　Ｖｉｌｌａ　宮古島＜宮古島＞,196211,,,24.7979063,125.267508,沖縄県宮古島市平良字久貝626-5,080-1090-6808
,ゲストハウス　あったかや　＜宮古島＞,129935,,,24.82032901,125.2845527,沖縄県宮古島市平良荷川取352-35,0980-74-2324
